GISPROPNUM,SIGNNAME,NAME311,BOROUGH,ADDRESS,LOCATION,ACRES,TYPECATEGORY,SUBCATEGORY,WATERFRONT,ZIPCODE,COMMUNITYBOARD,COUNCILDISTRICT,JURISDICTION,RETIRED,PARK_NAME,LATITUDE,LONGITUDE
M113,Joseph C. Sauer Park,Joseph C. Sauer Park,Manhattan,532 EAST 12 STREET,E. 12 St. bet. Ave. A and Ave. B,0.403,Neighborhood Park,Neighborhood Plgd,False,10009,103,2,DPR,False,Joseph C. Sauer Park,40.72817257654904,-73.97973450288063
Q084B,Tepper Triangle,Tepper Triangle,Queens,,"GCP Service Rd. South, 173 St., Homelawn St.",0.2,Triangle/Plaza,Sitting Area/Triangle/Mall,False,11432,408,24,DPR,False,Tepper Triangle,40.718724066474735,-73.79162171047385
R063,Old Town Playground,Old Town Playground,Staten Island,255 PARKINSON AVENUE,Parkinson Ave. at Kramer St.,1.534,Playground,JOP,False,10305,502,50,DPR,False,Old Town Playground,40.595394766723054,-74.08136110413318
M125A,Minetta Green,Minetta Green,Manhattan,294 6 AVENUE,S/e Corner Minetta Lane and Ave. of Americas,0.056,Triangle/Plaza,Sitting Area/Triangle/Mall,False,10012,102,2,DPR,False,Minetta Green,40.730318849941966,-74.00160890667028
M124,First Park,First Park,Manhattan,2 2 AVENUE,"Houston St., E. 1 St., 1 Ave.",0.763,Neighborhood Park,Neighborhood Plgd,False,10003,103,2,DPR,False,First Park,40.7235177934431,-73.98963947135479
M122,Captain Jacob Joseph Playground,Captain Jacob Joseph Playground,Manhattan,13 HENRY STREET,Rutgers St. and Henry St.,0.135,Playground,Neighborhood Plgd,False,10002,103,1,DPR,False,Captain Jacob Joseph Playground,40.71358820350991,-73.98981672318817
B446,Big Red Garden,Big Red Garden,Brooklyn,436 VAN SICLEN AVENUE,Van Siclen Ave. and Blake Ave.,0.043,Garden,Greenthumb,False,11207,305,42,DPR,False,Big Red Garden,40.668734671695375,-73.88958384059845
B045,Heisser Triangle,Heisser Triangle,Brooklyn,1424 MYRTLE AVENUE,"Knickerbocker Ave., Myrtle Ave., Bleecker St.",0.027,Triangle/Plaza,Sitting Area/Triangle/Mall,False,11237,304,37,DPR,False,Heisser Triangle,40.69873165784295,-73.91790188513005
X204,Story Playground,Story Playground,Bronx,880 LAFAYETTE AVENUE,Story Ave. bet. Taylor Ave. and Thieriot Ave.,2.075,Jointly Operated Playground,JOP,False,10473,209,18,DPR/DOE,False,Story Playground,40.82291343573624,-73.86284389225548
B023,Lafayette Playground,Lafayette Playground,Brooklyn,1037-1063 LAFAYETTE AVENUE,Lafayette Ave. bet. Malcolm X Blvd. and Patch Ave.,0.517,Playground,Neighborhood Plgd,False,11221,303,36,DPR,False,Lafayette Playground,40.69255632892053,-73.9300661494842
B384,Fresh Creek Nature Preserve,Fresh Creek Nature Preserve,Brooklyn,"Flatlands Ave, Louisiana Ave., E 108 St. and Belt Parkway","Flatlands Ave, Louisiana Ave., E 108 St. and Belt Parkway",77.044,Nature Area,Large Park,True,"11236, 11239",318,"42, 46",DPR,False,Fresh Creek Nature Preserve,40.64397904389672,-73.88446837073622
Q457,College Point Park,College Point Park,Queens,14 Ave. bet. 121 St. and College Point Blvd.,14 Ave. bet. 121 St. and College Point Blvd.,0.659,Recreational Field/Courts,Neighborhood Plgd,False,11356,407,19,DPR,False,College Point Park,40.78562391381971,-73.84648500384941
Q440,Hilton Holiday Gardens,Hilton Holiday Gardens,Queens,"133 Ave., 135 Ave. bet. 143 St. and 145 St.","133 Ave., 135 Ave. bet. 143 St. and 145 St.",1.2,Recreational Field/Courts,Undeveloped,False,11436,412,28,DPR,False,Hilton Holiday Gardens,40.66865894015933,-73.7954718771868
R065,Richmond Parkway,Richmond Parkway,Staten Island,Staten Island Exwy. To West Shore Exwy.,Staten Island Exwy. To West Shore Exwy.,350.983,Parkway,Large Park,False,"10301, 10304, 10306, 10309, 10312, 10314","502,503","50, 51",DPR,False,Richmond Parkway,40.570623931904066,-74.15025764759305
Q095,Vito Locascio Field,Vito Locascio Field,Queens,"N. Conduit Ave., 149 Ave., Cross Bay Blvd.","N. Conduit Ave., 149 Ave., Cross Bay Blvd.",3.258,Recreational Field/Courts,Neighborhood Park,False,11417,410,32,DPR,False,Vito Locascio Field,40.66995841580807,-73.8437198169314
Q299,Overlook Park,Overlook Park,Queens,"Ditmars Blvd., 22 Dr. bet. 97 St. and 100 St.","Ditmars Blvd., 22 Dr. bet. 97 St. and 100 St.",2.327,Nature Area,Sitting Area/Triangle/Mall,False,11369,403,21,DPR,False,Overlook Park,40.770471143572365,-73.87236938452979
Q096,Belt Parkway,Belt Parkway,Queens,Belt Pkwy. bet. Cross Bay Blvd. and Laurelton Pkwy.,Belt Pkwy. bet. Cross Bay Blvd. and Laurelton Pkwy.,202.647,Parkway,EXWY,False,"11413, 11414, 11420, 11430, 11434","410,412,413","28, 31",DPR,False,Belt Parkway,40.666458552910534,-73.78993059753358
B178,Flatbush Malls,Flatbush Malls,Brooklyn,Glenwood Rd. bet. E. 23 St. and Coney Island Ave.,Glenwood Rd. bet. E. 23 St. and Coney Island Ave.,0.73,Mall,Sitting Area/Triangle/Mall,False,"11210, 11230",314,45,DPR/CDOT,False,Flatbush Malls,40.63253008072646,-73.96113372112238
X148G2,Park,Park,Bronx,S/B Cross Bronx Exwy bet. Arthur Av and Crotona Av,S/B Cross Bronx Exwy bet. Arthur Av and Crotona Av,0.046,Strip,EXWY,False,10457,206,15,DPR,False,Park,40.84331552257373,-73.8938267878468
X086,Charlton-Thompson Garden,Charlton-Thompson Garden,Bronx,596 EAST 164 STREET,E 164 St bet. Cauldwell Av and Boston Rd,0.488,Neighborhood Park,Neighborhood Park,False,10456,203,17,DPR,False,Charlton-Thompson Garden,40.82468057574062,-73.9071028067672
X251,Co-op City Field,Co-op City Field,Bronx,Co-op City Blvd. and the Hutch. River bet. Carver Loop and Bellamy Loop,Co-op City Blvd. and the Hutch. River bet. Carver Loop and Bellamy Loop,3.4,Recreational Field/Courts,Neighborhood Park,False,10475,210,12,DPR,False,Co-op City Field,40.87581525949929,-73.82363421527084
X145,La Finca del Sur Community Garden,La Finca del Sur Community Garden,Bronx,E. 138 St. at Grand Concourse,E. 138 St. at Grand Concourse,0.255,Garden,Community Garden,False,10451,201,8,DPR,False,La Finca del Sur Community Garden,40.8126722469691,-73.93018246925469
M108H,Park,Park,Manhattan,E. 93 St. and FDR Dr.,E. 93 St. and FDR Dr.,0.034,Triangle/Plaza,Sitting Area/Triangle/Mall,False,10128,108,8,DPR/CDOT,False,Park,40.7807225673434,-73.94441202878248
M372,Allied Productions/Le Petit Versailles,Allied Productions/Le Petit Versailles,Manhattan,"E. 2 St., E. Houston St. bet. Ave. B and Ave. C","E. 2 St., E. Houston St. bet. Ave. B and Ave. C",0.034,Garden,Greenthumb,False,10009,103,2,DPR,False,Allied Productions/Le Petit Versailles,40.721134989821394,-73.98179009043483
Q360P,Park Slope,Park Slope,Queens,Behind overpass at 61 St. and Borden Ave.,Behind overpass at 61 St. and Borden Ave.,0.005,Strip,Sitting Area/Triangle/Mall,False,11378,405,30,DPR,False,Park Slope,40.725419601879324,-73.90386045804325
M318,Merchant's House Museum,Merchant's House Museum,Manhattan,29 EAST 4 STREET,E. 4 St. bet. Bowery and Lafayette St.,0.072,Historic House Park,Building,False,10003,102,2,DPR,False,Merchant's House Museum,40.72774266202993,-73.9922722406744
Q342,Electric Playground,Electric Playground,Queens,65-40 164 STREET,164 St. bet. 65 Ave. and 67 Ave.,1.749,Neighborhood Park,Neighborhood Plgd,False,11365,408,24,DPR,False,Electric Playground,40.735964599705426,-73.80537586356121
M215,Cherry Tree Park,Cherry Tree Park,Manhattan,1785 3 AVENUE,"99 St. To 100 St., 3 Ave.",0.95,Neighborhood Park,Neighborhood Plgd,False,10029,111,8,DPR/NYCHA,False,Cherry Tree Park,40.787238688613414,-73.94720552428667
B021,Commodore Barry Park,Commodore Barry Park,Brooklyn,65 PARK AVENUE,"Nassau St., Park Ave., bet. Navy St. and N. Elliot Pl.",10.391,Community Park,Large Park,False,11201,302,35,DPR,False,Commodore Barry Park,40.69729514970842,-73.97893701777049
Q033,Mall Eighteen,Mall Eighteen,Queens,,18 Ave. bet. 126 St. and 127 St.,0.09,Mall,Type 1,False,11356,407,19,DPR,False,Mall Eighteen,40.78322673382143,-73.84177031141104
M108J,Park,Park,Manhattan,E. 120 St. and Paladino Ave. (Service Rd To FDR Dr.),E. 120 St. and Paladino Ave. (Service Rd To FDR Dr.),0.188,Strip,Undeveloped,False,10035,111,8,DPR/CDOT,False,Park,40.796994014669316,-73.92949908294975
Q314,Fresh Meadows Playground,Fresh Meadows Playground,Queens,67-10 FRESH MEADOW LANE,67 Ave. bet. 173 St. and 174 St.,1.35,Jointly Operated Playground,JOP,False,11365,408,24,DPR/DOE,False,Fresh Meadows Playground,40.73411680752161,-73.79618385667733
M156,McKenna Square,McKenna Square,Manhattan,"W. 165 St., Amsterdam Ave. To Audubon Ave.","W. 165 St., Amsterdam Ave. To Audubon Ave.",0.222,Triangle/Plaza,Sitting Area/Triangle/Mall,False,10032,112,10,DPR/CDOT,False,McKenna Square,40.838460058108964,-73.93939313685686
X059,Sergeant Johnson Triangle,Sergeant Johnson Triangle,Bronx,Dr Kazimiroff Blvd and Crotona Av at E Fordham Rd,Dr Kazimiroff Blvd and Crotona Av at E Fordham Rd,0.74,Triangle/Plaza,Sitting Area/Triangle/Mall,False,10458,206,15,DPR,False,Sergeant Johnson Triangle,40.85793422368692,-73.88127740016182
B523,Park,Park,Brooklyn,Shell Rd. bet. Belt Pkwy. and Shore Pkwy.,Shell Rd. bet. Belt Pkwy. and Shore Pkwy.,0.161,Undeveloped,Undeveloped,True,11224,313,47,DPR,False,Park,40.58252867805505,-73.9749757197657
B191,Park,Park,Brooklyn,"New Utrecht Ave., 45 St., Ft Hamilton Pkwy.","New Utrecht Ave., 45 St., Ft Hamilton Pkwy.",0.097,Triangle/Plaza,Sitting Area/Triangle/Mall,False,11219,312,44,DPR,False,Park,40.64027872326328,-73.99450760670781
B255J,Seeley Park,Seeley Park,Brooklyn,S/B Prospect Exwy. bet. Seeley St. and Vanderbilt St.,S/B Prospect Exwy. bet. Seeley St. and Vanderbilt St.,0.364,Triangle/Plaza,Sitting Area/Triangle/Mall,False,11218,307,39,DPR,False,Seeley Park,40.65338243276341,-73.97783981402505
Q490,Locust Manor Civic Association,Locust Manor Civic Association,Queens,"120 Ave., Victoria Dr. bet. 171 St. and 171 St.","120 Ave., Victoria Dr. bet. 171 St. and 171 St.",0.083,Garden,Greenthumb,False,11434,412,28,DPR,False,Locust Manor Civic Association,40.683521420790875,-73.77389666369457
Q357B01,Barrier Playground,Barrier Playground,Queens,"Horace Harding Exwy. Sr. Rd. S., 62 Ave. bet. 102 St. and Yellowstone Blvd.","Horace Harding Exwy. Sr. Rd. S., 62 Ave. bet. 102 St. and Yellowstone Blvd.",0.867,Neighborhood Park,Neighborhood Plgd,False,11375,406,24,DPR,False,Barrier Playground,40.73626992157688,-73.85493361775778
Q341E,Crosson Green,Crosson Green,Queens,"68 St., the BQE bet. Woodside Ave. and 43 Ave.","68 St., the BQE bet. Woodside Ave. and 43 Ave.",0.064,Triangle/Plaza,Sitting Area/Triangle/Mall,False,11377,402,26,DPR,False,Crosson Green,40.74232264250292,-73.89667943781143
Q325,Gladys Warren Triangle,Gladys Warren Triangle,Queens,"Hollis Ave., 104 Ave., 194 St.","Hollis Ave., 104 Ave., 194 St.",0.113,Triangle/Plaza,Sitting Area/Triangle/Mall,False,11412,412,27,DPR,False,Gladys Warren Triangle,40.70728483566912,-73.76422812701172
Q245,Hollis Veterans Square,Hollis Veterans Square,Queens,"Jamaica Ave., Hollis Ave., 187 Pl.","Jamaica Ave., Hollis Ave., 187 Pl.",0.018,Triangle/Plaza,Sitting Area/Triangle/Mall,False,11423,412,27,DPR,False,Hollis Veterans Square,40.710298082096166,-73.77128624494428
Q220F,Maple Grove Park,Maple Grove Park,Queens,Hoover Ave. bet. Queens Blvd. and 132 St.,Hoover Ave. bet. Queens Blvd. and 132 St.,1.5,Triangle/Plaza,Sitting Area/Triangle/Mall,False,11415,409,29,DPR,False,Maple Grove Park,40.71194941505675,-73.82416643115893
Q186,Jackson Mill Green,Jackson Mill Green,Queens,"94 St., Jackson Mill Rd. bet. 23 Ave. and 24 Ave.","94 St., Jackson Mill Rd. bet. 23 Ave. and 24 Ave.",0.065,Triangle/Plaza,Sitting Area/Triangle/Mall,False,11369,403,21,DPR,False,Jackson Mill Green,40.76642228721032,-73.8757599512003
Q124,Myrtle Avenue Clemens Triangle,Myrtle Avenue Clemens Triangle,Queens,"Myrtle Ave., Cypress Ave., Putnam Ave.","Myrtle Ave., Cypress Ave., Putnam Ave.",0.013,Triangle/Plaza,Sitting Area/Triangle/Mall,False,11385,405,34,DPR,False,Myrtle Avenue Clemens Triangle,40.700184972033256,-73.90662642760974
Q067,Pigeon Paradise,Pigeon Paradise,Queens,"Broadway, 69 St., 37 Ave.","Broadway, 69 St., 37 Ave.",0.071,Triangle/Plaza,Sitting Area/Triangle/Mall,False,11377,402,26,DPR,False,Pigeon Paradise,40.74865442101277,-73.89656694015457
Q061,Steinmann Triangle,Steinmann Triangle,Queens,"Skillman Ave., Roosevelt Ave. bet. 55 St. and 56 St.","Skillman Ave., Roosevelt Ave. bet. 55 St. and 56 St.",0.214,Triangle/Plaza,Sitting Area/Triangle/Mall,False,11377,402,26,DPR,False,Steinmann Triangle,40.74518939610247,-73.90924312110697
Q357A,Park,Park,Queens,"LIE Exit 19, Westbound bet. 92 St. and 94 St.","LIE Exit 19, Westbound bet. 92 St. and 94 St.",0.03,Strip,,False,11373,404,25,DPR,False,Park,40.733984990555484,-73.86780571437875
B214,Linden Park,Linden Park,Brooklyn,559 STANLEY AVENUE,Vermont St. bet. Linden Blvd. and Stanley Ave.,9.322,Jointly Operated Playground,Large Park,False,11207,305,42,DPR,False,Linden Park,40.658952389563886,-73.88699862303898
B194,Harmony Triangle,Harmony Triangle,Brooklyn,"Middleton St., Harrison Ave., Union Ave.","Middleton St., Harrison Ave., Union Ave.",0.1,Triangle/Plaza,Sitting Area/Triangle/Mall,False,11206,301,33,DPR,False,Harmony Triangle,40.70327087712285,-73.95039702850974
B433,Hendrick I. Lott House,Hendrick I. Lott House,Brooklyn,1940 EAST 36 STREET,E. 35 St. to E. 36 St. between Fillmore Ave. and Ave. S,0.734,Historic House Park,Building,False,11234,318,46,DPR,False,Hendrick I. Lott House,40.61032940913033,-73.93264509151872
B416,TLC Sculpture Park Garden,TLC Sculpture Park Garden,Brooklyn,271 GLENMORE AVENUE,Glenmore Ave. and Hinsdale Ave.,0.172,Garden,Greenthumb,False,11207,305,37,DPR,False,TLC Sculpture Park Garden,40.67271842666271,-73.90065003708007
B415,Georgia Ave Garden,Georgia Ave Garden,Brooklyn,328 NEW LOTS AVENUE,Georgia Ave. and New Lots Ave.,0.037,Garden,Greenthumb,False,11207,305,42,DPR,False,Georgia Ave Garden,40.661006893615536,-73.89444068301346
B395,Green Central Knoll,Green Central Knoll,Brooklyn,55 EVERGREEN AVENUE,"Flushing Ave., Central Ave., Noll St., Evergreen Ave.",2.741,Neighborhood Park,Neighborhood Plgd,False,11206,304,34,DPR,False,Green Central Knoll,40.70193346121583,-73.93303455932788
B391,Lt. Federico Narvaez Tot Lot,Lt. Federico Narvaez Tot Lot,Brooklyn,1302 CORTELYOU ROAD,Argyle Rd. and Cortelyou Rd.,0.125,Playground,Neighborhood Plgd,False,11226,314,40,DPR,False,Lt. Federico Narvaez Tot Lot,40.64028198752568,-73.96592745903821
B430,Lewis Playground,Lewis Playground,Brooklyn,773 WILLOUGHBY AVENUE,Willoughby Ave. between Lewis Ave. and Marcus Garvey Blvd.,0.161,Playground,Neighborhood Plgd,False,11206,303,36,DPR,False,Lewis Playground,40.69540717078098,-73.93788272110586
Q450,Corona Golf Playground,Corona Golf Playground,Queens,109-02 46 AVENUE,"109 St., 111 St. bet. 46 Ave. and 47 Ave.",1.722,Neighborhood Park,Neighborhood Plgd,False,11368,404,21,DPR,False,Corona Golf Playground,40.74758238179596,-73.85461130323442
B277,Benson Playground,Benson Playground,Brooklyn,1939 BATH AVENUE,Bath Ave. between Bay 22 St. and Bay 23 St.,0.934,Jointly Operated Playground,JOP,False,11214,311,38,DPR/DOE,False,Benson Playground,40.6024335174662,-74.00226109724635
X317,Rainbow Garden,Rainbow Garden,Bronx,379-383 EAST 159 STREET,E 159 St bet. Melrose Av and Courtlandt Av,0.174,Garden,Greenthumb,False,10451,203,17,DPR,False,Rainbow Garden,40.82332031801983,-73.91498692454876
B610,Park,Park,Brooklyn,,Bond St. bet. 4 St. and Gowanus Canal,0.032,Triangle/Plaza,,,11231,306,39,CDOT,False,Park,40.67618466192863,-73.99256562629634
Q262,Alameda Malls,Alameda Malls,Queens,,"Alameda Ave. bet. Northern Blvd., Hanford St. and Northern Blvd., 247 St.",0.553,Mall,Sitting Area/Triangle/Mall,False,11362,411,19,DPR,False,Alameda Malls,40.76462105971508,-73.7423346078171
B301,Greene Playground,Greene Playground,Brooklyn,431 WAVERLY AVENUE,Greene Ave. bet. Waverly Ave. and Washington Ave.,1.259,Jointly Operated Playground,JOP,False,11238,302,35,DPR/DOE,False,Greene Playground,40.68619030071928,-73.96590308114781
Q130,Motor Parkway,Motor Parkway,Queens,,Cloverdale Blvd. bet. 77 Ave. and Kingsbury Ave. and 210 St. bet. 75 Ave. and Richland Ave.,13.894,Nature Area,EXWY,False,11364,411,23,DPR,False,Motor Parkway,40.737020694860576,-73.75357897827895
B309,Pink Playground,Pink Playground,Brooklyn,1258 LORING AVENUE,Stanley Ave. and Eldert La.,1.0,Playground,Neighborhood Plgd,False,11208,305,42,DPR/NYCHA,False,Pink Playground,40.666545691513,-73.86266766630064
B265,Rainbow Playground,Rainbow Playground,Brooklyn,5523 6 AVENUE,6 Ave. bet. 55 St. and 56 St.,0.46,Playground,Neighborhood Plgd,False,11220,307,43,DPR,False,Rainbow Playground,40.64054463896645,-74.0110649060401
Q178,Mall Forty Two XLII,Mall Forty Two XLII,Queens,,"42 Av, Bell Bl To Francis Lewis Bl",1.429,Mall,Sitting Area/Triangle/Mall,False,11361,411,19,DPR,False,Mall Forty Two XLII,40.76126807040601,-73.77727178977311
X272,Ranaqua Playground,Ranaqua Playground,Bronx,452 EAST 136 STREET,E. 136 St. bet. Brown Pl. and Willis Ave.,0.972,Neighborhood Park,Neighborhood Plgd,False,10454,201,8,DPR,False,Ranaqua Playground,40.80671257031436,-73.92218057570953
B197,Mellett Playground,Mellett Playground,Brooklyn,1301 AVENUE V,Avenue V bet. E. 13 St. and E. 14 St.,1.056,Neighborhood Park,Neighborhood Plgd,False,11229,315,48,DPR,False,Mellett Playground,40.59698660687331,-73.95744721937726
Q010,Clearview Park Golf Course,Clearview Park Golf Course,Queens,202-12 WILLETS POINT BLVD,"202 St., Clearview Exwy., bet. Cross Island Pkwy. and 23 Ave.",110.93,Managed Sites,Large Park,False,11360,407,19,DPR,False,Clearview Park Golf Course,40.782231186911716,-73.7888606778318
B275,Grady Playground,Grady Playground,Brooklyn,2801 BRIGHTON 3 STREET,"Shore Pkwy., Brighton 3 St., Brighton 4 St.",3.403,Jointly Operated Playground,JOP,False,11235,313,48,DPR/DOE,False,Grady Playground,40.58305310475232,-73.96471236477421
R146,Joe Holzka Community Garden,Joe Holzka Community Garden,Staten Island,1171 CASTLETON AVENUE,Barker St. bet. Castleton Ave. and Taylor Ct.,0.429,Garden,Greenthumb,False,10310,501,49,DPR,False,Joe Holzka Community Garden,40.63452802673532,-74.1215743592007
Q268,Bell Malls,Bell Malls,Queens,,Bell Blvd. bet. 48 Ave. and Horace Harding Exwy. Sr. Rd. N.,1.652,Mall,Sitting Area/Triangle/Mall,False,11364,411,23,DPR,False,Bell Malls,40.7517598021917,-73.76413981824636
B209,Galapo Playground,Galapo Playground,Brooklyn,2401 AVENUE V,"Bedford Ave., Gravesend Neck Rd., Ave. V, E. 24 St.",0.565,Playground,Neighborhood Plgd,False,11229,315,48,DPR,False,Galapo Playground,40.59799544928458,-73.94672959610773
M108T01,East River Esplanade,East River Esplanade,Manhattan,,"FDR Drive, E 90 St. To E 125 St.",8.595,Waterfront Facility,Sitting Area/Triangle/Mall,True,"10028, 10029, 10035, 10128","108,111","5, 8",DPR/CDOT/TBTA,False,East River Esplanade,40.78964923132362,-73.9363205566894
B223F,Squibb Park,Squibb Park,Brooklyn,68 COLUMBIA HEIGHTS,Middagh St. between Columbia Heights & Furman St.,0.626,Neighborhood Park,Neighborhood Park,False,11201,302,33,DPR,False,Squibb Park,40.70089551921494,-73.99547528247061
B223DE,Brooklyn Heights Promenade,Brooklyn Heights Promenade,Brooklyn,68 COLUMBIA HEIGHTS,Montague St. bet. Montague Ter. and BQE,0.21,Triangle/Plaza,Sitting Area/Triangle/Mall,False,11201,302,33,DPR,False,Brooklyn Heights Promenade,40.69573636358471,-73.99776419029698
B298,Stockton Playground,Stockton Playground,Brooklyn,662 PARK AVENUE,"Park Ave., Martin Luther King Pl., Marcy Ave.",1.089,Jointly Operated Playground,JOP,False,11206,303,36,DPR/DOE,False,Stockton Playground,40.697283737408775,-73.94867376728698
B256,Brooklyn Academy Of Music,Brooklyn Academy Of Music,Brooklyn,30 LAFAYETTE AVENUE,Lafayette Ave between St Felix St. and Ashland Pl.,0.965,Managed Sites,Building,False,11217,302,35,DPR,False,Brooklyn Academy Of Music,40.6864627691887,-73.97769752744462
M043,Isham Park,Isham Park,Manhattan,570 WEST 214 STREET,"Broadway, Isham St, Inwood Pk",20.132,Community Park,Large Park,False,10034,112,10,DPR,False,Isham Park,40.870657938633464,-73.91968462418438
R111,Lt. Lia Playground,Lt. Lia Playground,Staten Island,49 BELMONT PLACE,Wall St. bet. St Marks Pl. and Belmont Pl.,1.37,Playground,Neighborhood Plgd,False,10301,501,49,DPR,False,Lt. Lia Playground,40.643568672498816,-74.07984293911471
X182,Millbrook Playground,Millbrook Playground,Bronx,625 EAST 135 STREET,E. 135 St. bet. Cypress Ave. and St Ann's Ave.,1.053,Playground,Neighborhood Plgd,False,10454,201,8,DPR,False,Millbrook Playground,40.804354092207774,-73.91664783779828
B217,Marcy Playground,Marcy Playground,Brooklyn,753 MYRTLE AVENUE,Myrtle Ave. bet. Nostrand Ave. and Marcy Ave.,3.201,Community Park,Neighborhood Plgd,False,11206,303,36,DPR,False,Marcy Playground,40.695521393656755,-73.95091349308828
R047,Willowbrook Parkway,Willowbrook Parkway,Staten Island,Willowbrook Pkwy. from Walker St. to Hylan Blvd.,Willowbrook Pkwy. from Walker St. to Hylan Blvd.,198.481,Parkway,EXWY,False,"10302, 10303, 10306, 10314","501,502,503","49, 50, 51",DPR,False,Willowbrook Parkway,40.58361719132407,-74.13516975050794
R031,Wolfe's Pond Park,Wolfe's Pond Park,Staten Island,"Holton Ave., Chisolm St., Luten Ave., Arbutus Ave. and Raritan Bay","Holton Ave., Chisolm St., Luten Ave., Arbutus Ave. and Raritan Bay",302.693,Community Park,Large Park,True,"10309, 10312",503,51,DPR,False,Wolfe's Pond Park,40.52033811182887,-74.19097549996845
B090,Sobel Playground,Sobel Playground,Brooklyn,"Lee Ave., Division Ave., Roebling St.","Lee Ave., Division Ave., Roebling St.",0.135,Playground,Neighborhood Plgd,False,11211,301,34,DPR,False,Sobel Playground,40.70737436800779,-73.96149679721707
X025,Hugh J. Grant Circle,Hugh J. Grant Circle,Bronx,Westchester Ave. bet. Virginia Ave. and Metropolitan Ave.,Westchester Ave. bet. Virginia Ave. and Metropolitan Ave.,1.11,Triangle/Plaza,Sitting Area/Triangle/Mall,False,"10462, 10472",209,18,DPR,False,Hugh J. Grant Circle,40.833130303168794,-73.86095066175812
B022,Sarah J.S. Tompkins Garnet Playground,Sarah J.S. Tompkins Garnet Playground,Brooklyn,"Lynch St., Middleton St. bet. Lee Ave. and Bedford Ave.","Lynch St., Middleton St. bet. Lee Ave. and Bedford Ave.",1.101,Playground,Neighborhood Plgd,False,11206,301,33,DPR,False,Sarah J.S. Tompkins Garnet Playground,40.700681538647686,-73.95542086443005
X324,176th Street Community Garden,176th Street Community Garden,Bronx,E. 176 St. bet. Walton Ave. and Morris Ave.,E. 176 St. bet. Walton Ave. and Morris Ave.,0.213,Garden,Greenthumb,False,10453,205,14,DPR,False,176th Street Community Garden,40.84800052518938,-73.90961007342501
X337,Latinos Unidos Garden,Latinos Unidos Garden,Bronx,427 EAST 157 STREET,E. 157 St. bet. Melrose Ave and Elton Ave.,0.116,Garden,Greenthumb,False,10451,201,17,DPR,False,Latinos Unidos Garden,40.82155860311139,-73.91412418028288
M040,Johnny Hartman Square,Johnny Hartman Square,Manhattan,"Amsterdam Av, W 143 St and Hamilton Pl","Amsterdam Av, W 143 St and Hamilton Pl",0.018,Triangle/Plaza,Sitting Area/Triangle/Mall,False,10031,109,7,DPR,False,Johnny Hartman Square,40.824116731963386,-73.94863616991302
B255E,Park,Park,Brooklyn,"S/B Prospect Exwy. bet. 6 Ave., 7 Ave., and 18 St.","S/B Prospect Exwy. bet. 6 Ave., 7 Ave., and 18 St.",0.736,Triangle/Plaza,Sitting Area/Triangle/Mall,False,11215,307,39,DPR,False,Park,40.661535534540725,-73.98840669404491
B519,Spencer St Block Association,Spencer St Block Association,Brooklyn,230 Spencer St,Spencer St. between De Kalb Ave. and Willoughby Ave.,0.043,Garden,Greenthumb,False,11205,303,33,DPR,False,Spencer St Block Association,40.69144936448676,-73.95481965242136
Q391,Joseph Austin Playground,Joseph Austin Playground,Queens,165-65 84 AVENUE,164 Pl. bet. Grand Central Pkwy. Sr. Rd. S. and 84 Ave.,3.814,Jointly Operated Playground,JOP,False,11432,408,24,DPR/DOE,False,Joseph Austin Playground,40.71585759067837,-73.80069930084429
Q390,Clintonville Playground,Clintonville Playground,Queens,154-60 17 AVENUE,Clintonville St. bet. 17 Ave. and 17 Rd.,1.553,Jointly Operated Playground,JOP,False,11357,407,19,DPR/DOE,False,Clintonville Playground,40.783218264780196,-73.80750297014147
Q400,Oakland Gardens,Oakland Gardens,Queens,53-11 SPRINGFIELD BLVD,Springfield Blvd. bet. 53 Ave. and 56 Ave.,1.166,Jointly Operated Playground,JOP,False,11364,411,23,DPR/DOE,False,Oakland Gardens,40.75360508973547,-73.75965323287848
Q320,Vleigh Playground,Vleigh Playground,Queens,70-35 150 STREET,"70 Rd., 71 Ave. bet. 150 St. and Kissena Blvd.",2.243,Jointly Operated Playground,JOP,False,11367,408,24,DPR/DOE,False,Vleigh Playground,40.729821888518025,-73.81650537859392
R105,Prall Playground,Prall Playground,Staten Island,880 FOREST AVENUE,"Elizabeth St., Forest Ave., Broadway, Clove Lake Pl.",1.307,Jointly Operated Playground,JOP,False,10310,501,49,DPR/DOE,False,Prall Playground,40.628602833313806,-74.11813711851988
Q364,Marie Curie Playground,Marie Curie Playground,Queens,46-27 OCEANIA STREET,"46 Ave., 46 Rd. bet. Oceania St. and 211 St.",2.552,Jointly Operated Playground,JOP,False,11361,411,19,DPR/DOE,False,Marie Curie Playground,40.756935696465355,-73.77177875013741
Q352,Hillside Playground,Hillside Playground,Queens,81-14 256 STREET,82 Ave. bet. 256 St. and 257 St.,1.16,Jointly Operated Playground,JOP,False,11004,413,23,DPR/DOE,False,Hillside Playground,40.74099991061356,-73.71318369801851
Q326,James A. Bland Playground,James A. Bland Playground,Queens,135-10 40 ROAD,40 Rd. bet. Prince St. and Main St.,0.551,Playground,Neighborhood Plgd,False,11354,407,20,DPR,False,James A. Bland Playground,40.75827117165244,-73.83113233379245
Q334,Playground Twenty One,Playground Twenty One,Queens,163-02 21 AVENUE,166 St. bet. 21 Rd. and 21 Ave.,1.439,Jointly Operated Playground,JOP,False,11357,407,19,DPR/DOE,False,Playground Twenty One,40.77828286271261,-73.79851511703492
Q430,Sunrise Playground,Sunrise Playground,Queens,253-50 149 AVENUE,253 St. bet. 149 Ave. and 149 Rd.,1.025,Jointly Operated Playground,JOP,False,11422,413,31,DPR/DOE,False,Sunrise Playground,40.65265686759344,-73.73634759791528
B500,Patrick Van Doren Pocket Park,Patrick Van Doren Pocket Park,Brooklyn,123 Malcolm X Av,Malcolm X Blvd. and Quincy St.,0.039,Garden,Greenthumb,False,11221,303,36,DPR,False,Patrick Van Doren Pocket Park,40.68944593927783,-73.93007159855719
B501,St Mark's Block Association,St. Mark's Block Association,Brooklyn,455-457 RALPH AVENUE,St Mark's Ave. and Ralph Ave.,0.211,Garden,Greenthumb,False,11233,316,41,DPR,False,St Mark's Block Association,40.6734466173562,-73.92187332888683
X031,McKinley Square,McKinley Square,Bronx,"E. 169 St., Boston Rd., Clinton Ave.","E. 169 St., Boston Rd., Clinton Ave.",0.12,Triangle/Plaza,Sitting Area/Triangle/Mall,False,10456,203,17,DPR,False,McKinley Square,40.83111556829503,-73.9007018662721
B463,Fantasy Garden,Fantasy Garden,Brooklyn,181 LEGION STREET,Legion St. and Blake Ave.,0.23,Garden,Greenthumb,False,11212,316,41,DPR,False,Fantasy Garden,40.66432236966982,-73.91687691218515
R027A,Aesop Park,Aesop Park,Staten Island,555 PAGE AVENUE,Corner Of Bartow Ave. and Page Ave.,0.912,Jointly Operated Playground,JOP,False,10309,503,51,DOE,False,Aesop Park,40.50955835111052,-74.22989753003348
B114,Msgr. McGolrick Park,Msgr. McGolrick Park,Brooklyn,744 NASSAU AVENUE,"Russell St., Monitor St. bet. Nassau Ave. and Driggs Ave.",9.134,Neighborhood Park,Large Park,False,11222,301,33,DPR,False,Msgr. McGolrick Park,40.72444093128351,-73.94335394771167
B109,Bill Brown Playground,Bill Brown Playground,Brooklyn,2401 AVENUE Y,"Ave. Y, Ave. X bet. E. 24 St. and Bedford Ave.",3.214,Neighborhood Park,Neighborhood Plgd,False,11235,315,48,DPR,False,Bill Brown Playground,40.59216587179095,-73.94566112489497
B445,Ten Eyck Houses Garden,Ten Eyck Houses Garden,Brooklyn,15 TEN EYCK STREET,Ten Eyck St. between Union Ave. and Lorminer St.,0.114,Garden,Greenthumb,False,11206,301,34,DPR,False,Ten Eyck Houses Garden,40.70980060972975,-73.95014012503428
B099,Lt. Joseph Petrosino Park,Lt. Joseph Petrosino Park,Brooklyn,7002 16 AVENUE,"16 Ave., New Utrecht Ave. bet. 70 St. and 71 St.",0.871,Playground,Neighborhood Plgd,False,11228,311,38,DPR,False,Lt. Joseph Petrosino Park,40.61911977027914,-73.99851228399845
Q044,L/CPL Thomas P. Noonan Jr. Playground,L/CPL Thomas P. Noonan Jr. Playground,Queens,42-01 GREENPOINT AVENUE,"47 Ave., Greenpoint Ave. bet. 42 St. and 43 St.",1.05,Playground,Neighborhood Plgd,False,11104,402,26,DPR,False,L/CPL Thomas P. Noonan Jr. Playground,40.74110022765731,-73.92248063583354
Q038,Benninger Playground,Benninger Playground,Queens,60-45 MADISON STREET,Madison St. bet. 60 Pl. and Fresh Pond Rd.,0.574,Playground,Neighborhood Plgd,False,11385,405,30,DPR,False,Benninger Playground,40.707056522924425,-73.8982820783679
Q026,Park Of The Americas,Park Of The Americas,Queens,103-02 41 AVENUE,"41 Ave., 42 Ave. bet. 103 St. and 104 St.",3.076,Neighborhood Park,Neighborhood Plgd,False,11368,404,21,DPR,False,Park Of The Americas,40.74856510693987,-73.86192271952903
X148H3,Park,Park,Bronx,Marimon Av bet. N/B Cross Bronx Exw and Fairmount Pl,Marimon Av bet. N/B Cross Bronx Exw and Fairmount Pl,0.023,Strip,EXWY,False,10460,206,15,DPR,False,Park,40.84219981949564,-73.88875805429518
X052,Triangle,Triangle,Bronx,"E 163 St, Washington Av and Brook Av","E 163 St, Washington Av and Brook Av",0.054,Triangle/Plaza,Sitting Area/Triangle/Mall,False,10451,203,17,DPR,False,Triangle,40.82456416146049,-73.91085565584513
X332,Schomberg Academy Garden,Schomberg Academy Garden,Bronx,Rev James Polite Av bet. E 164 St and E 165 St,Rev James Polite Av bet. E 164 St and E 165 St,0.032,Garden,Greenthumb,False,10459,202,17,DPR,False,Schomberg Academy Garden,40.823392072490726,-73.89902890476574
B055,Sternberg Park,Sternberg Park,Brooklyn,286 LORIMER STREET,Lorimer St. bet. Montrose Ave. and Boerum St.,4.044,Playground,Neighborhood Plgd,False,11206,301,34,DPR,False,Sternberg Park,40.70622664378181,-73.94724412500794
Q469,Seagirt Ave Wetlands,Seagirt Ave Wetlands,Queens,"Seagirt Blvd., Seagirt Ave. bet. Beach 5 St. and Queens County Border","Seagirt Blvd., Seagirt Ave. bet. Beach 5 St. and Queens County Border",5.323,Nature Area,Undeveloped,True,"11559, 11691",414,31,DPR,False,Seagirt Ave Wetlands,40.59687177493023,-73.74015702320712
Q159,Father Reilly Square,Father Reilly Square,Queens,"Winchester Blvd., 93 Ave., 220 St.","Winchester Blvd., 93 Ave., 220 St.",0.03,Triangle/Plaza,Sitting Area/Triangle/Mall,False,11428,413,23,DPR/CDOT,False,Father Reilly Square,40.72272187349184,-73.73613278677249
Q140,Barclay Triangle,Barclay Triangle,Queens,102 St. bet. Astoria Blvd. and 31 Ave.,102 St. bet. Astoria Blvd. and 31 Ave.,0.047,Triangle/Plaza,Sitting Area/Triangle/Mall,False,11369,403,21,DPR,False,Barclay Triangle,40.76137366321095,-73.86703439090326
B118B,St. Mary's Park,St. Mary's Park,Brooklyn,440 SMITH STREET,Smith St. bet. Nelson St. and Huntington St.,0.367,Playground,Neighborhood Plgd,False,11231,306,39,DPR,False,St. Mary's Park,40.67578557796676,-73.99754049970126
B221,Steuben Playground,Steuben Playground,Brooklyn,"Flushing Ave., Steuben St., Williamsburg Pl.","Flushing Ave., Steuben St., Williamsburg Pl.",1.171,Neighborhood Park,Neighborhood Plgd,False,11205,302,33,DPR,False,Steuben Playground,40.697444918988104,-73.96345807786435
X022,Benjamin Gladstone Square,Benjamin Gladstone Square,Bronx,"Hoe Ave., Westchster Ave., W. Farms Rd.","Hoe Ave., Westchster Ave., W. Farms Rd.",0.2,Triangle/Plaza,Sitting Area/Triangle/Mall,False,10459,202,17,DPR,False,Benjamin Gladstone Square,40.825363687172114,-73.8909928419115
X148K3,Wood Park,Wood Park,Bronx,"Thieriot Av, Wood Av, N/B Cross Bronx Exwy Service Rd","Thieriot Av, Wood Av, N/B Cross Bronx Exwy Service Rd",0.191,Triangle/Plaza,Sitting Area/Triangle/Mall,False,10460,209,18,DPR,False,Wood Park,40.8351598478422,-73.86532397049781
X191A,Bicentennial Veterans Memorial Park,Bicentennial Veterans Memorial Park,Bronx,Throgg's Neck Exwy at Pennyfield Ave. and Elisworth Ave.,Throgg's Neck Exwy at Pennyfield Ave. and Elisworth Ave.,9.395,Neighborhood Park,Large Park,True,10465,210,13,DPR,False,Bicentennial Veterans Memorial Park,40.8235051837265,-73.81385750586584
X106,Evelina Antonetty Playground,Evelina Antonetty Playground,Bronx,E 146 St bet. Walton Av and Grand Concourse,E 146 St bet. Walton Av and Grand Concourse,0.696,Playground,Neighborhood Plgd,False,10451,201,17,DPR,False,Evelina Antonetty Playground,40.817539280668186,-73.9283164287503
X148L1,Virginia Park,Virginia Park,Bronx,White Plains Rd bet. S/B Cross Bronx Exwy and Westchester Av,White Plains Rd bet. S/B Cross Bronx Exwy and Westchester Av,0.918,Neighborhood Park,Sitting Area/Triangle/Mall,False,"10460, 10462",209,18,DPR,False,Virginia Park,40.83347903931458,-73.86217975594987
X084,D'Onofrio Square,D'Onofrio Square,Bronx,White Plains Rd. bet. E. 213 St. and E. 215 St.,White Plains Rd. bet. E. 213 St. and E. 215 St.,0.38,Triangle/Plaza,Sitting Area/Triangle/Mall,False,10467,212,12,DPR,False,D'Onofrio Square,40.880139299286604,-73.86495306577778
X276,Granja Farm OTF,Granja Farm OTF,Bronx,Westchester Av bet. St Ann's Av and Eagle Ave,Westchester Av bet. St Ann's Av and Eagle Ave,0.375,Garden,Greenthumb,False,10455,201,17,DPR,False,Granja Farm OTF,40.81569713635732,-73.91151990919943
X195A,Colgate Close,Colgate Close,Bronx,1445 BRUCKNER BOULEVARD,N/B Bruckner Blvd bet. Colgate Ave. and Close Ave.,1.871,Neighborhood Park,Neighborhood Plgd,False,10472,209,17,DPR,False,Colgate Close,40.824157672411815,-73.88148828096013
X029,Lyons Square Playground,Lyons Square Playground,Bronx,987 LONGFELLOW AVENUE,Aldus St to Bruckner Blvd bet. Bryant Av and Longfellow Av,1.322,Playground,Neighborhood Plgd,False,10459,202,17,DPR,False,Lyons Square Playground,40.82277492751041,-73.88807089856387
X207,Pontiac Playground,Pontiac Playground,Bronx,584 JACKSON AVENUE,Jackson Ave. bet. E. 151 St. and E. 149,0.913,Jointly Operated Playground,JOP,False,10455,201,8,DPR/DOE,False,Pontiac Playground,40.81425170879046,-73.90823105587728
X195D,Park,Park,Bronx,North and South of the Bruckner Expressway at Puglsey Av,North and South of the Bruckner Expressway at Puglsey Av,0.006,Strip,,False,"10472, 10473",209,18,DPR,False,Park,40.82638223767694,-73.85632869784045
Q037,Neponsit Mall,Neponsit Mall,Queens,Rockaway Beach Blvd. bet. Beach 149 St. and Beach 142 St.,Rockaway Beach Blvd. bet. Beach 149 St. and Beach 142 St.,0.76,Mall,Sitting Area/Triangle/Mall,False,11694,414,32,DPR,False,Neponsit Mall,40.57053172245507,-73.86122853591225
M108Q1,Andrew Haswell Green Park,Andrew Haswell Green Park,Manhattan,555 EAST 60 STREET,E. River bet. E. 59 St. and E. 63 St.,1.984,Neighborhood Park,Sitting Area/Triangle/Mall,True,"10022, 10065",108,5,DPR,False,Andrew Haswell Green Park,40.759507099070134,-73.9576252948332
M123,Peretz Square,Peretz Square,Manhattan,"E. 1 St., E. Houston St., 1 Ave. and Allen St.","E. 1 St., E. Houston St., 1 Ave. and Allen St.",0.192,Triangle/Plaza,Type 1,False,10003,103,2,DPR,False,Peretz Square,40.722967513580635,-73.98803522021433
M087,Sakura Park,Sakura Park,Manhattan,"Riverside Dr., Claremont Ave. To W. 122 St.","Riverside Dr., Claremont Ave. To W. 122 St.",2.067,Neighborhood Park,Neighborhood Plgd,False,10027,109,7,DPR,False,Sakura Park,40.813069207893,-73.96207854713705
Q360F,Technical Sergeant Thomas J. Davey Triangle,Technical Sergeant Thomas J. Davey Triangle,Queens,"Borden Ave., Hamilton Pl., Jay Ave.","Borden Ave., Hamilton Pl., Jay Ave.",0.126,Triangle/Plaza,Sitting Area/Triangle/Mall,False,11378,405,30,DPR,False,Technical Sergeant Thomas J. Davey Triangle,40.72635103301628,-73.90059924727447
Q360E,Hull Triangle,Hull Triangle,Queens,"55 Dr., 64 St., Hull Ave.","55 Dr., 64 St., Hull Ave.",0.158,Triangle/Plaza,Sitting Area/Triangle/Mall,False,11378,405,30,DPR,False,Hull Triangle,40.72540699034068,-73.90155017976355
Q501,Sergeant Collins Triangle,Sergeant Collins Triangle,Queens,"Broadway, 59 St., 34 Ave.","Broadway, 59 St., 34 Ave.",0.118,Triangle/Plaza,Sitting Area/Triangle/Mall,False,11377,402,26,DPR/CDOT,False,Sergeant Collins Triangle,40.75178743967396,-73.90290003835356
Q360G,Whitefish Triangle,Whitefish Triangle,Queens,"55 Dr., Hamilton Pl., Perry Ave.","55 Dr., Hamilton Pl., Perry Ave.",0.185,Triangle/Plaza,Neighborhood Plgd,False,11378,405,30,DPR,False,Whitefish Triangle,40.72518257204057,-73.89889472610288
M108P,Sutton Parks,Sutton Parks,Manhattan,"E. 53 St. to E. 54 St. at Sutton Pl.; Foot of E. 55 St., E. 56 St., E. 57 St.","E. 53 St. to E. 54 St. at Sutton Pl.; Foot of E. 55 St., E. 56 St., E. 57 St.",0.85,Triangle/Plaza,Sitting Area/Triangle/Mall,True,10022,106,4,DPR/CDOT,False,Sutton Parks,40.75615455365646,-73.96096708625328
X238,Saw Mill Playground,Saw Mill Playground,Bronx,468 EAST 140 STREET,E. 139 St. bet. Brook Ave. and Willis Ave.,0.92,Jointly Operated Playground,JOP,False,10454,201,8,DPR/DOE,False,Saw Mill Playground,40.80891310561024,-73.91937329464169
B555,Beaver Noll Park,Beaver Noll Park,Brooklyn,90 BEAVER STREET,Beaver St. bet. Locust St. and Arion Pl.,0.436,Playground,Neighborhood Plgd,False,11206,304,34,DPR,False,Beaver Noll Park,40.699669194766365,-73.93619001184217
X159,Captain William Harry Thompson Playground,Captain William Harry Thompson Playground,Bronx,E. 174 St. bet. Bronx River Ave. and E. 173 St.,E. 174 St. bet. Bronx River Ave. and E. 173 St.,1.0,Neighborhood Park,Neighborhood Plgd,False,10472,209,17,DPR,False,Captain William Harry Thompson Playground,40.83434856204825,-73.87776458195762
Q360H,Peter Chahales Park,Peter Chahales Park,Queens,"69 St., 58 Ave., Queens - Mid-Town Exwy. Svc. Rd. S.","69 St., 58 Ave., Queens - Mid-Town Exwy. Svc. Rd. S.",0.074,Triangle/Plaza,Sitting Area/Triangle/Mall,False,11378,405,30,DPR,False,Peter Chahales Park,40.724857202839196,-73.89434937033482
Q412,Gwen Ifill Park,Gwen Ifill Park,Queens,129 Ave. bet. 172 St. and 176 St.,129 Ave. bet. 172 St. and 176 St.,16.439,Nature Area,Large Park,False,11434,412,27,DPR,False,Gwen Ifill Park,40.67842345390646,-73.76817345002523
M138,Bill Bojangles Robinson Playground,Bill Bojangles Robinson Playground,Manhattan,"W. 150 St., W/s 7 Ave.","W. 150 St., W/s 7 Ave.",0.172,Playground,Neighborhood Plgd,False,10039,110,9,DPR,False,Bill Bojangles Robinson Playground,40.825279701734765,-73.93729268851594
B210U,Park,Park,Brooklyn,584 92 STREET,92 St. bet. Gowanus Exwy. and Ft. Hamilton Pkwy.,0.002,Strip,EXWY,False,11209,310,47,DPR,False,Park,40.61637452931694,-74.02700373491166
Q360Q,Sitting Area 127 CXXVII,Sitting Area 127 CXXVII,Queens,"69 Ln., 58 Rd., Queens - Mid-Town Exwy. Sr. Rd. S.","69 Ln., 58 Rd., Queens - Mid-Town Exwy. Sr. Rd. S.",0.17,Triangle/Plaza,Sitting Area/Triangle/Mall,False,11378,405,30,DPR/SDOT,False,Sitting Area 127 CXXVII,40.725016105770294,-73.89213581599466
Q360S,Quick Brown Fox Triangle,Quick Brown Fox Triangle,Queens,"73 St., 57 Rd., Queens - Mid-Town Exwy. Sr. Rd. N.","73 St., 57 Rd., Queens - Mid-Town Exwy. Sr. Rd. N.",0.07,Triangle/Plaza,Sitting Area/Triangle/Mall,False,11378,405,30,CDOT,False,Quick Brown Fox Triangle,40.727537266470314,-73.88878535324385
X170,The Pearly Gates,The Pearly Gates,Bronx,2470 TRATMAN AVENUE,St. Peter's Ave. at Tratman Ave.,0.659,Playground,Neighborhood Plgd,False,10461,210,18,DPR,False,The Pearly Gates,40.838729792144676,-73.84555786698402
Q349,Telephone Playground,Telephone Playground,Queens,75-25 BELL BOULEVARD,75 Ave. bet. Bell Blvd. and 217 St.,1.056,Jointly Operated Playground,JOP,False,11364,411,23,DPR/DOE,False,Telephone Playground,40.738463121811485,-73.75659166461966
B546,The Feeding Tree,The Feeding Tree,Brooklyn,340 TOMPKINS AVENUE,Tompkins Ave. bet. Madison St. and Monroe St.,0.039,Garden,,False,11216,303,36,DPR,False,The Feeding Tree,40.68596691725111,-73.94471082018269
X357,Rainbow Garden of Life and Health,Garden,Bronx,757 MELROSE AV,E. 157 St. and Melrose Ave.,0.248,Garden,,False,10451,201,17,DPR,False,Rainbow Garden of Life and Health,40.82150774928642,-73.91556521963247
B152,Rappaport Playground,Rappaport Playground,Brooklyn,5202 FT HAMILTON PARKWAY,Ft. Hamilton Pkwy. bet. 52 St. and 53 St.,1.148,Neighborhood Park,Neighborhood Plgd,False,11219,312,43,DPR,False,Rappaport Playground,40.63697479676719,-74.00069006128554
B549,Whole Neighborhood Garden,Whole Neighborhood Garden,Brooklyn,1001 BEDFORD AVENUE,Bedford Ave. bet. Kosciuszko St. and Lafayette Ave.,0.091,Garden,,False,11205,303,36,DPR,False,Whole Neighborhood Garden,40.68979263961966,-73.95486788968768
B024,Orient Grove,Orient Grove,Brooklyn,Metropolitan Ave. and Orient Ave.,Metropolitan Ave. and Orient Ave.,0.149,Garden,Sitting Area/Triangle/Mall,False,11211,301,34,DPR,False,Orient Grove,40.71481036149541,-73.94033371679198
Q339,Cambria Playground,Cambria Playground,Queens,"Francis Lewis Blvd., 121 Ave. bet. 219 St. and 222 St.","Francis Lewis Blvd., 121 Ave. bet. 219 St. and 222 St.",4.635,Community Park,Neighborhood Plgd,False,11411,413,27,DPR,False,Cambria Playground,40.689142329769204,-73.74292954626871
B128,Colonel David Marcus Playground,Colonel David Marcus Playground,Brooklyn,"1670 EAST 4 STREET, 1662 EAST 5 STREET, 1566 OCEAN PARKWAY",Ave. P bet. E. 4 St. and Ocean Pkwy.,1.974,Playground,Neighborhood Plgd,False,11230,312,44,DPR,False,Colonel David Marcus Playground,40.60988005738718,-73.96933663210044
Q409,Park,Park,Queens,Woodhaven Blvd. bet. 76 Ave. and 78 Ave.,Woodhaven Blvd. bet. 76 Ave. and 78 Ave.,0.001,Strip,Sitting Area/Triangle/Mall,False,11385,406,32,DPR,False,Park,40.70765776088578,-73.85901226045677
M237,Corporal John A. Seravalli Playground,Corporal John A. Seravalli Playground,Manhattan,638 HUDSON STREET,Hudson St. bet. Gansevoort St. and Horatio St.,1.143,Neighborhood Park,Neighborhood Plgd,False,10014,102,3,DPR,False,Corporal John A. Seravalli Playground,40.739071159965576,-74.00479367098119
M236,Samuel Seabury Playground,Samuel Seabury Playground,Manhattan,142 EAST 96 STREET,"Lexington Ave., E. 95 St. To E. 96 St.",0.786,Jointly Operated Playground,JOP,False,10128,108,5,DPR/DOE,False,Samuel Seabury Playground,40.78534705269452,-73.95082672179349
B278,Sam Leggio Triangle,Sam Leggio Triangle,Brooklyn,23 HIGHLAND PLACE,"Highland Pl. at Etna St., Forcetube Ave.",0.011,Triangle/Plaza,Sitting Area/Triangle/Mall,False,11208,305,37,DPR/CDOT,False,Sam Leggio Triangle,40.6850763717075,-73.88195488636127
B210F,Admiral Triangle,Admiral Triangle,Brooklyn,558 CLINTON STREET,"Hamilton Ave., Nelson St. Clinton St.",0.433,Playground,Neighborhood Plgd,False,11231,306,39,DPR,False,Admiral Triangle,40.67692779229148,-74.00107988866199
Q337,Maurice A FitzGerald Playground,Maurice A FitzGerald Playground,Queens,10430 ATLANTIC AVENUE,106 St. bet. Atlantic Ave. and 94 Ave.,1.201,Playground,Neighborhood Plgd,False,11416,409,29,DPR,False,Maurice A FitzGerald Playground,40.690318763667435,-73.83975342745691
Q336,Judge Moses Weinstein Playground,Judge Moses Weinstein Playground,Queens,"Union Turnpike, Vleigh Pl., 141 St.","Union Turnpike, Vleigh Pl., 141 St.",3.25,Community Park,Neighborhood Plgd,False,11367,408,24,DPR,False,Judge Moses Weinstein Playground,40.71801826854055,-73.82058528441814
X148I3,Park,Park,Bronx,Cross Bronx Exwy Srvc Rd N bet. Bryant Av and Boston Av,Cross Bronx Exwy Srvc Rd N bet. Bryant Av and Boston Av,0.03,Strip,Sitting Area/Triangle/Mall,False,10460,206,15,DPR,False,Park,40.83934148704996,-73.88334152576796
Q483,Corona Health Sanctuary,Corona Health Sanctuary,Queens,104-04 CORONA AVENUE,"Corona Ave. bet. 104 St. and 106 St., 50 Av.",0.101,Playground,Neighborhood Plgd,False,11368,404,21,DPR,False,Corona Health Sanctuary,40.74377214148807,-73.85833036099974
Q357A1,Park,Park,Queens,Horace Harding Exwy. Sr. Rd. N. bet. 94 St. and Junction Blvd,Horace Harding Exwy. Sr. Rd. N. bet. 94 St. and Junction Blvd,0.022,Strip,,False,11373,404,25,DPR,False,Park,40.73405132862573,-73.86565596116039
M246,Kimlau Square,Kimlau Square,Manhattan,"Chatham Sq., Oliver St. and E. Broadway","Chatham Sq., Oliver St. and E. Broadway",0.242,Triangle/Plaza,Sitting Area/Triangle/Mall,False,10038,103,1,DPR/CDOT,False,Kimlau Square,40.71340952844346,-73.99804353405801
X028,Joyce Kilmer Park,Joyce Kilmer Park,Bronx,Grand Concourse to Walton Av bet. E 161 St and E 164 St,Grand Concourse to Walton Av bet. E 161 St and E 164 St,6.882,Community Park,Large Park,False,10451,204,16,DPR,False,Joyce Kilmer Park,40.82852586245467,-73.9226603298615
M287,Sheridan Square Viewing Garden,Sheridan Square Viewing Garden,Manhattan,"Washington Pl., W. 4 St., Barrow St.","Washington Pl., W. 4 St., Barrow St.",0.07,Triangle/Plaza,Sitting Area/Triangle/Mall,False,10014,102,3,DPR,False,Sheridan Square Viewing Garden,40.733010252820364,-74.0021168484702
R097,Ida Court,Ida Court,Staten Island,"Drumgoole Rd. E., N. Railroad St., Ida Ct.","Drumgoole Rd. E., N. Railroad St., Ida Ct.",1.6,Playground,Neighborhood Park,False,10312,503,51,DPR,False,Ida Court,40.53839630872847,-74.18713697329326
Q209,Lawrence Triangle,Lawrence Triangle,Queens,"Parsons Blvd., 147 St. bet. Elm Ave. and 45 Ave.","Parsons Blvd., 147 St. bet. Elm Ave. and 45 Ave.",0.138,Triangle/Plaza,Sitting Area/Triangle/Mall,False,11355,407,20,DPR,False,Lawrence Triangle,40.75591433465233,-73.81572855302925
R100,Drumgoole Tot Lot,Drumgoole Tot Lot,Staten Island,"Drumgoole Rd. W., Grantwood Ave., Carlton Ave., Rathbun Ave.","Drumgoole Rd. W., Grantwood Ave., Carlton Ave., Rathbun Ave.",0.636,Playground,Neighborhood Plgd,False,10312,503,51,DPR,False,Drumgoole Tot Lot,40.549400952257244,-74.17989045242633
Q055,Veteran's Square,Veteran's Square,Queens,"National St., 42 Ave., 102 St.","National St., 42 Ave., 102 St.",0.1,Triangle/Plaza,Sitting Area/Triangle/Mall,False,11368,404,21,DPR,False,Veteran's Square,40.74770156416344,-73.8632862993235
R107,New Dorp Park,New Dorp Park,Staten Island,"8 St., bet. Allison Ave. and Beach Ave.","8 St., bet. Allison Ave. and Beach Ave.",0.785,Nature Area,Undeveloped,False,10306,502,50,DPR,False,New Dorp Park,40.569788270931866,-74.11841380416766
Q057,Sohncke Square,Sohncke Square,Queens,"Woodside Ave., 58 St., Roosevelt Ave.","Woodside Ave., 58 St., Roosevelt Ave.",0.044,Triangle/Plaza,Sitting Area/Triangle/Mall,False,11377,402,26,DPR,False,Sohncke Square,40.74550756946098,-73.90630792541029
B166E,Sixteen Lindens Triangle,Sixteen Lindens Triangle,Brooklyn,"E. 16 St., Shore Pkwy., Bay Ct.","E. 16 St., Shore Pkwy., Bay Ct.",0.487,Triangle/Plaza,Sitting Area/Triangle/Mall,False,11235,315,48,DPR,False,Sixteen Lindens Triangle,40.58436766918609,-73.9523833213554
Q066G,Sitting Area,Sitting Area,Queens,Hoyt Ave. bet. 19 St. and 21 St.,Hoyt Ave. bet. 19 St. and 21 St.,1.16,Triangle/Plaza,Sitting Area/Triangle/Mall,False,11102,401,22,DPR,False,Sitting Area,40.77602879698108,-73.92303823971554
B182,Howard Malls,Howard Malls,Brooklyn,"Blake Ave., Tapscott St., Howard Ave.","Blake Ave., Tapscott St., Howard Ave.",0.191,Triangle/Plaza,Sitting Area/Triangle/Mall,False,11212,316,41,DPR,False,Howard Malls,40.66394098563383,-73.91987768727914
X001A,Aqueduct Walk,Aqueduct Walk,Bronx,Dr. MLK Jr. Blvd. bet. W. Tremont Ave. and E. Fordham Rd.,Dr. MLK Jr. Blvd. bet. W. Tremont Ave. and E. Fordham Rd.,8.607,Community Park,Large Park,False,"10453, 10468","205,207",14,DPR,False,Aqueduct Walk,40.856691701235526,-73.90920457191807
R102,Park,Park,Staten Island,W/s Drumgoole Rd. W. bet. Belfield Ave. and Jefferson Blvd.,W/s Drumgoole Rd. W. bet. Belfield Ave. and Jefferson Blvd.,0.006,Strip,Sitting Area/Triangle/Mall,False,10312,503,51,DPR,False,Park,40.54415401996819,-74.18399065220865
R095,Park,Park,Staten Island,"Drumgoole Rd. W., Darlington Ave., Nippon Ave.","Drumgoole Rd. W., Darlington Ave., Nippon Ave.",0.735,Nature Area,Undeveloped,False,10312,503,51,DPR,False,Park,40.537124520666865,-74.19095861822606
R099,Park,Park,Staten Island,"Drumgoole Rd. E., Albee Ave., Ionia Ave.","Drumgoole Rd. E., Albee Ave., Ionia Ave.",0.554,Nature Area,Undeveloped,False,10312,503,51,DPR,False,Park,40.54080692164914,-74.18498020894084
B371,Spring Creek Park,Spring Creek Park,Brooklyn,"Shore Pkwy and Seaview Ave., Schenk Ave.","Shore Pkwy and Seaview Ave., Schenk Ave.",42.583,Community Park,REDEC,True,"11208, 11239, 11414",305,42,DPR,False,Spring Creek Park,40.652009711794115,-73.87150419611511
R165,Blueberry Park,Blueberry Park,Staten Island,Arden Ave. at Blueberry Lane,Arden Ave. at Blueberry Lane,0.724,Neighborhood Park,Neighborhood Park,False,10312,503,51,DPR,False,Blueberry Park,40.52857305662682,-74.16020145040397
R042,Kaltenmeier Playground,Kaltenmeier Playground,Staten Island,Virginia Ave. and Anderson St.,Virginia Ave. and Anderson St.,1.02,Neighborhood Park,Neighborhood Plgd,False,10305,501,49,DPR,False,Kaltenmeier Playground,40.61482923188201,-74.06879987044628
R049,Bedford Green,Bedford Green,Staten Island,"Waverly Pl., Targee St.","Waverly Pl., Targee St.",0.11,Undeveloped,Undeveloped,False,10304,501,49,DPR,False,Bedford Green,40.618012433380066,-74.08517160620873
B062,Memorial Gore,Memorial Gore,Brooklyn,"Metropolitan Ave., Maspeth Ave., bet. Humbolt St. and Bushwick Ave.","Metropolitan Ave., Maspeth Ave., bet. Humbolt St. and Bushwick Ave.",0.066,Triangle/Plaza,Sitting Area/Triangle/Mall,False,11211,301,34,DPR,False,Memorial Gore,40.71484867713713,-73.94234557802775
R029,Westerleigh Park,Westerleigh Park,Staten Island,"Willard Ave., Springfield Ave., Maine Ave., Neal Dow Ave.","Willard Ave., Springfield Ave., Maine Ave., Neal Dow Ave.",2.889,Neighborhood Park,Neighborhood Park,False,10314,501,50,DPR,False,Westerleigh Park,40.61982586816741,-74.13445965608376
R071,Great Kills Veterans Playground,Great Kills Veterans Playground,Staten Island,"Hillcrest Ave., N/o Highmount Rd.","Hillcrest Ave., N/o Highmount Rd.",1.065,Jointly Operated Playground,JOP,False,10308,503,51,DPR/DOE,False,Great Kills Veterans Playground,40.54703087055235,-74.15179768751105
R126,Gaeta Park,Gaeta Park,Staten Island,"N. Gannon Ave., Willow Road E., Victory Blvd., Wyona Ave.","N. Gannon Ave., Willow Road E., Victory Blvd., Wyona Ave.",1.43,Triangle/Plaza,Sitting Area/Triangle/Mall,False,10314,501,50,DPR,False,Gaeta Park,40.6100577048065,-74.1494250115959
R064,Christopher J. Igneri Playground,Christopher J. Igneri Playground,Staten Island,"Schmidts La., Manor Rd. and Laguardia Ave.","Schmidts La., Manor Rd. and Laguardia Ave.",1.145,Neighborhood Park,Neighborhood Plgd,False,10314,502,49,DPR,False,Christopher J. Igneri Playground,40.60869014561165,-74.11957806851757
R003,Barrett Park,Barrett Park,Staten Island,650 BROADWAY,Glenwood Pl. bet. Clove Rd. and Broadway,8.108,Buildings/Institutions,Large Park,False,10310,501,49,DPR,False,Barrett Park,40.62513498485185,-74.11556949373892
R059,Von Briesen Park,Von Briesen Park,Staten Island,"Tompkins Ave., Bay St. bet. School Rd., North Rd.","Tompkins Ave., Bay St. bet. School Rd., North Rd.",13.938,Neighborhood Park,Large Park,True,10305,501,49,DPR,False,Von Briesen Park,40.60775144250839,-74.05862264886461
R053,Harris Brothers Park,Harris Brothers Park,Staten Island,"Foste Rd., Carlton Ave., Drumgoole Rd. W.","Foste Rd., Carlton Ave., Drumgoole Rd. W.",2.288,Neighborhood Park,Neighborhood Plgd,False,10309,503,51,DPR,False,Harris Brothers Park,40.533071840120655,-74.20230791732322
R036,Bobbie Lewis Jr. Playground,Bobbie Lewis Jr. Playground,Staten Island,Harbor Rd. at Richmond Terr.,Harbor Rd. at Richmond Terr.,0.271,Neighborhood Park,Neighborhood Plgd,False,10303,501,49,DPR,False,Bobbie Lewis Jr. Playground,40.63656370317457,-74.16047117942583
R167,Richmond Terrace Park,Richmond Terrace Park,Staten Island,Richmond Ter. bet. Van Pelt Ave. and Van Name Ave.,Richmond Ter. bet. Van Pelt Ave. and Van Name Ave.,11.193,Nature Area,,True,10303,501,49,DPR,False,Richmond Terrace Park,40.6381106894771,-74.1537427075457
Q172,Corona Plaza,Corona Plaza,Queens,Roosevelt Ave. bet. National St. and 104 St.,Roosevelt Ave. bet. National St. and 104 St.,0.041,Triangle/Plaza,Sitting Area/Triangle/Mall,False,11368,404,21,DPR,False,Corona Plaza,40.749719767087555,-73.8625279285715
B032,Fort Greene Park,Fort Greene Park,Brooklyn,100 WASHINGTON PARK,"Myrtle Ave., De Kalb Ave. bet. Washington Park and St. Edward's St.",30.168,Community Park,Large Park,False,"11201, 11205",302,35,DPR,False,Fort Greene Park,40.69152490845682,-73.97551118597262
X183,Bruckner Playground,Bruckner Playground,Bronx,2770 LAFAYETTE AVENUE,Brinsmade Ave. bet. Cross Bronx Ser. Rd. and Swinton Ave.,1.053,Jointly Operated Playground,JOP,False,10465,210,13,DPR/DOE,False,Bruckner Playground,40.826772926366665,-73.82857540161058
M339,El Sol Brilliante Jr,El Sol Brilliante Jr,Manhattan,537 EAST 12 STREET,E. 12 St. bet. Ave. A and Ave. B,0.059,Garden,Greenthumb,False,10009,103,2,DPR,False,El Sol Brilliante Jr,40.72858327870567,-73.97953392115426
B044,Dr. Ronald McNair Park,Dr. Ronald McNair Park,Brooklyn,"Eastern Pkwy., Washington Ave., Classon Ave.","Eastern Pkwy., Washington Ave., Classon Ave.",1.361,Neighborhood Park,Sitting Area/Triangle/Mall,False,11225,309,35,DPR,False,Dr. Ronald McNair Park,40.67070171570491,-73.96200070925109
M338,Neighbors Of Vega Baja,Neighbors Of Vega Baja,Manhattan,E. 109 St. bet. 1 Ave. and 2 Ave.,E. 109 St. bet. 1 Ave. and 2 Ave.,0.072,Garden,,False,10029,111,8,DPR,False,Neighbors Of Vega Baja,40.79198160846725,-73.94024146195083
M333,Bradhurst Ave Garden,Bradhurst Ave Garden,Manhattan,Bradhurst Ave. and W. 152 St.,Bradhurst Ave. and W. 152 St.,0.09,Garden,Greenthumb,False,10039,110,9,DPR,False,Bradhurst Ave Garden,40.827665768697,-73.93932630810487
R161,Laredo Avenue Parcel,Laredo Avenue Parcel,Staten Island,"Annadale Rd. bet. Laredo Ave. and Lamoka Ave., Memphis Ave.","Annadale Rd. bet. Laredo Ave. and Lamoka Ave., Memphis Ave.",2.223,Nature Area,Undeveloped,False,10312,503,51,DPR,False,Laredo Avenue Parcel,40.54846166610907,-74.17394667863674
M319A,Sugar Hill Garden,Sugar Hill Garden,Manhattan,Edgecombe Ave. and W. 150 St.,Edgecombe Ave. and W. 150 St.,0.069,Garden,Greenthumb,False,10031,109,9,DPR,False,Sugar Hill Garden,40.82626985213176,-73.94228466015765
M313,6BC Botanical Garden,6BC Botanical Garden,Manhattan,"E. 5 St. and E. 6 St., Ave. B and Ave. C","E. 5 St. and E. 6 St., Ave. B and Ave. C",0.178,Garden,Greenthumb,False,10009,103,2,DPR,False,6BC Botanical Garden,40.72384189020112,-73.98067513203053
M307,W 87th Street Garden,W 87th Street Garden,Manhattan,"W. 87 St., Columbus Ave., Central Park W.","W. 87 St., Columbus Ave., Central Park W.",0.095,Garden,Greenthumb,False,10024,107,6,DPR,False,W 87th Street Garden,40.787091356543314,-73.97092623720583
M315,The Creative Little Garden,The Creative Little Garden,Manhattan,"E. 6 St., bet. Ave. A and Ave. B","E. 6 St., bet. Ave. A and Ave. B",0.063,Garden,Greenthumb,False,10009,103,2,DPR,False,The Creative Little Garden,40.72465096665827,-73.98258759820604
B229,Triangle,Triangle,Brooklyn,"Ralph Ave., Ave. T and E. 61 St.","Ralph Ave., Ave. T and E. 61 St.",0.019,Triangle/Plaza,Sitting Area/Triangle/Mall,False,11234,318,46,DPR,False,Triangle,40.616602221333984,-73.91672889818214
Q243,Norelli-Hargreaves Memorial Triangle,Norelli-Hargreaves Memorial Triangle,Queens,"Liberty Ave., 101 Ave. bet. Waltham St. and 146 St.","Liberty Ave., 101 Ave. bet. Waltham St. and 146 St.",0.036,Triangle/Plaza,Sitting Area/Triangle/Mall,False,11435,412,27,DPR,False,Norelli-Hargreaves Memorial Triangle,40.69566807506764,-73.8053740451413
Q062,Fleetwood Triangle,Fleetwood Triangle,Queens,"Woodhaven Blvd., 63 Dr., Penelope Ave.","Woodhaven Blvd., 63 Dr., Penelope Ave.",0.027,Triangle/Plaza,Sitting Area/Triangle/Mall,False,11374,406,30,DPR,False,Fleetwood Triangle,40.72270383935469,-73.86727321927061
Q254,Corporal Frank F. Fagan Sq.,Corporal Frank F. Fagan Sq.,Queens,"48 St., Newtown Rd., Broadway","48 St., Newtown Rd., Broadway",0.004,Triangle/Plaza,Sitting Area/Triangle/Mall,False,11377,401,26,DPR,False,Corporal Frank F. Fagan Sq.,40.75602089212432,-73.91242861119808
X149,Miele Park,Miele Park,Bronx,Bruckner Blvd bet. Hollywood Ave. and Crosby Ave.,Bruckner Blvd bet. Hollywood Ave. and Crosby Ave.,0.39,Triangle/Plaza,Sitting Area/Triangle/Mall,False,10461,210,13,DPR,False,Miele Park,40.83475045034959,-73.82606006143395
Q433A,Park,Park,Queens,Pedestrian Way bet. N. Conduit Ave. and Arion Rd.,Pedestrian Way bet. N. Conduit Ave. and Arion Rd.,0.008,Strip,EXWY,False,11417,410,32,DPR,False,Park,40.67076073561451,-73.84670516293977
R160,Heritage Park,Heritage Park,Staten Island,"Richmond Ter. at Tompkins Ct., Kill Van Kull","Richmond Ter. at Tompkins Ct., Kill Van Kull",9.934,Neighborhood Park,Neighborhood Park,True,10310,501,49,DPR,False,Heritage Park,40.64115205903779,-74.1225977632976
Q225,Broad Channel Veteran's Park,Broad Channel Veteran's Park,Queens,Cross Bay Blvd. bet. E. 4 Rd. and E. 6 Rd.,Cross Bay Blvd. bet. E. 4 Rd. and E. 6 Rd.,0.565,Triangle/Plaza,Sitting Area/Triangle/Mall,False,11693,414,32,DPR,False,Broad Channel Veteran's Park,40.611039212409196,-73.81888674046375
B385,WNYC Transmitter Park,WNYC Transmitter Park,Brooklyn,2 KENT STREET,West St. bet. Kent St. and Greenpoint Ave.,6.611,Neighborhood Park,Neighborhood Park,True,11222,301,33,DPR,False,WNYC Transmitter Park,40.72978384968662,-73.9619911153919
Q213,Studley Triangle,Studley Triangle,Queens,"162 St., Northern Blvd., Crocheron Ave.,","162 St., Northern Blvd., Crocheron Ave.,",0.024,Triangle/Plaza,Sitting Area/Triangle/Mall,False,11358,407,19,DPR,False,Studley Triangle,40.76238351963843,-73.8038562950828
B223NA,Classon Playground,Classon Playground,Brooklyn,"Flushing Ave, Williamsburg Pl, Classon & Kent Aves","Flushing Ave, Williamsburg Pl, Classon & Kent Aves",2.982,Playground,Neighborhood Plgd,False,11211,301,33,DPR,False,Classon Playground,40.699070788575575,-73.96206992847793
Q131,Frank Principe Park,Frank Principe Park,Queens,"Maurice Ave., 63 St. bet. 54 Ave. and Borden Ave.","Maurice Ave., 63 St. bet. 54 Ave. and Borden Ave.",7.461,Community Park,Large Park,False,11378,405,30,DPR,False,Frank Principe Park,40.72745916743064,-73.90474447213084
Q139,Drumm Triangle,Drumm Triangle,Queens,"Cypress Hills St., Cooper Ave., 65 Pl.","Cypress Hills St., Cooper Ave., 65 Pl.",0.166,Triangle/Plaza,Sitting Area/Triangle/Mall,False,11385,405,30,DPR,False,Drumm Triangle,40.69936339214452,-73.88824991306029
X297,Garden Of Eden,Garden Of Eden,Bronx,1664 WEEKS AVENUE,E 173 St bet. Weeks Av and Monroe Av,0.207,Garden,To Be Determined,False,10457,204,15,DPR,False,Garden Of Eden,40.84346358122448,-73.90739364511887
Q076,Legion Triangle,Legion Triangle,Queens,"Rockaway Blvd., Eldert La.","Rockaway Blvd., Eldert La.",0.05,Triangle/Plaza,Sitting Area/Triangle/Mall,False,11421,409,32,DPR,False,Legion Triangle,40.68641708760346,-73.86669817950103
Q070,Trolley Car Triangle,Trolley Car Triangle,Queens,"Astoria Blvd., 97 St. and Jackson Mill Rd.","Astoria Blvd., 97 St. and Jackson Mill Rd.",0.032,Triangle/Plaza,Sitting Area/Triangle/Mall,False,11369,403,21,DPR,False,Trolley Car Triangle,40.762293437069886,-73.87242951448822
Q096C,Mentone Playground,Mentone Playground,Queens,N. Conduit Ave. bet. 230 Pl. and the Belt Pkwy.,N. Conduit Ave. bet. 230 Pl. and the Belt Pkwy.,1.102,Undeveloped,Neighborhood Plgd,False,11413,413,31,DPR,False,Mentone Playground,40.666230949747174,-73.74288408963228
R156,Sylvan Grove Cemetery,Sylvan Grove Cemetery,Staten Island,Victory Blvd. and Glen St.,Victory Blvd. and Glen St.,2.476,Triangle/Plaza,Sitting Area/Triangle/Mall,False,10314,502,50,DPR,False,Sylvan Grove Cemetery,40.59137949723162,-74.1921587613928
R121,Siedenburg Park,Siedenburg Park,Staten Island,"Greaves Ave., Dewey Ave. and Evergreen St.","Greaves Ave., Dewey Ave. and Evergreen St.",22.882,Nature Area,Large Park,False,10308,503,51,DPR,False,Siedenburg Park,40.55614200327642,-74.14426972877091
Q003,Ashmead Park,Ashmead Park,Queens,Liberty Ave. bet. 168 St. and 168 Pl.,Liberty Ave. bet. 168 St. and 168 Pl.,0.059,Triangle/Plaza,Sitting Area/Triangle/Mall,False,11433,412,27,DPR,False,Ashmead Park,40.702893100747836,-73.79035848234132
B019,Carroll Park,Carroll Park,Brooklyn,375 COURT STREET,"Court St., Smith St., bet. Carroll St. and President St.",1.874,Neighborhood Park,Neighborhood Plgd,False,11231,306,39,DPR,False,Carroll Park,40.681098550728215,-73.99547459233308
B486,Green Valley Garden,Green Valley Garden,Brooklyn,93 NEW LOTS AVENUE,"New Lots Ave. bet. Sackman St., Powell St. and Junius St.",0.19,Garden,Greenthumb,False,11212,316,42,DPR,False,Green Valley Garden,40.65826114766067,-73.9015979484818
Q393D,LaGuardia Landing Lights,LaGuardia Landing Lights,Queens,"80 St., 81 St. bet. 24 Ave. and 25 Ave.","80 St., 81 St. bet. 24 Ave. and 25 Ave.",1.607,Recreational Field/Courts,Sitting Area/Triangle/Mall,False,11370,403,22,DPR,False,LaGuardia Landing Lights,40.7640092060674,-73.88833535592052
B172,Heffernan Triangle,Heffernan Triangle,Brooklyn,"New Utrecht Ave., 9 Ave., 39 St.","New Utrecht Ave., 9 Ave., 39 St.",0.029,Triangle/Plaza,Sitting Area/Triangle/Mall,False,11219,312,38,DPR,False,Heffernan Triangle,40.64595336391265,-73.99479470721805
Q393F,LaGuardia Landing Lights,LaGuardia Landing Lights,Queens,Astoria Blvd. bet. 81 St. and 82 St.,Astoria Blvd. bet. 81 St. and 82 St.,0.249,Recreational Field/Courts,Sitting Area/Triangle/Mall,False,11370,403,22,DPR,False,LaGuardia Landing Lights,40.76545112085166,-73.88756484932549
R131,Huguenot Ponds Park,Huguenot Ponds Park,Staten Island,Billiou St. and Comely St. bet. Huguenot Ave. and Kingdom Ave.,Billiou St. and Comely St. bet. Huguenot Ave. and Kingdom Ave.,1.53,Nature Area,Large Park,False,10312,503,51,DPR,False,Huguenot Ponds Park,40.53037592595562,-74.18958245639435
B017,Bushwick Playground,Bushwick Playground,Brooklyn,617 KNICKERBOCKER AVENUE,Knickerbocker Ave. bet. Woodbine St. and Putnam Ave.,2.783,Jointly Operated Playground,JOP,False,11237,304,37,DPR,False,Bushwick Playground,40.69600424418537,-73.91213697916653
R152,Carlton Park,Carlton Park,Staten Island,Carlton Blvd. and Crown Ave.,Carlton Blvd. and Crown Ave.,1.25,Nature Area,,False,10312,503,51,DPR,False,Carlton Park,40.55191548956091,-74.18447234310726
Q220C,Dr. Charles R. Drew Park,Dr. Charles R. Drew Park,Queens,"Van Wyck Exwy. Sr. Rd. E., 140 St. bet. 115 Ave. and 116 Ave.","Van Wyck Exwy. Sr. Rd. E., 140 St. bet. 115 Ave. and 116 Ave.",6.336,Recreational Field/Courts,Neighborhood Park,False,11436,412,28,DPR,False,Dr. Charles R. Drew Park,40.68072292025138,-73.80303335791164
B149B,Linwood Playground,Linwood Playground,Brooklyn,Linwood St. bet. New Lots Ave. and Hegeman Ave.,Linwood St. bet. New Lots Ave. and Hegeman Ave.,0.705,Playground,Neighborhood Plgd,False,11208,305,42,DPR,False,Linwood Playground,40.66610712407845,-73.88037103552604
B422,Bkln Bears Rockwell Pl Garden,Brooklyn Bears Rockwell Pl Garden,Brooklyn,"Flatbush Ave., Lafayette Ave., Rockwell Pl.","Flatbush Ave., Lafayette Ave., Rockwell Pl.",0.082,Garden,Greenthumb,False,11217,302,35,DPR,False,Bkln Bears Rockwell Pl Garden,40.68694599359259,-73.9792644028307
Q522,Park,Park,Queens,"Broadway, Bridge St. bet. 160 Ave. and Russell St.","Broadway, Bridge St. bet. 160 Ave. and Russell St.",0.957,Undeveloped,,True,11414,410,32,DPR,False,Park,40.65683038858745,-73.8310065925724
Q066E,Triborough Bridge Playground E,Triborough Bridge Playground E,Queens,"Hoyt Ave., bet. Crescent St. and 26 St.","Hoyt Ave., bet. Crescent St. and 26 St.",0.46,Recreational Field/Courts,Neighborhood Plgd,False,11102,401,22,DPR/TBTA,False,Triborough Bridge Playground E,40.77300381641012,-73.92087468108161
B016,Maria Hernandez Park,Maria Hernandez Park,Brooklyn,64 IRVING AVENUE,"Irving Ave., Knickerbocker Ave. bet. Starr St. and Suydam St.",6.873,Neighborhood Park,Large Park,False,11237,304,34,DPR,False,Maria Hernandez Park,40.70317144367843,-73.9238634006787
B461,Euclid Garden,Euclid Garden,Brooklyn,Doscher St. - Euclid Ave. bet. Belmont Ave. and Sutter Ave.,Doscher St. - Euclid Ave. bet. Belmont Ave. and Sutter Ave.,0.181,Garden,Greenthumb,False,11208,305,42,DPR,False,Euclid Garden,40.673663424530055,-73.87185666040354
M222,Grand Canal Court,Grand Canal Court,Manhattan,"Thompson St., Canal St., Ave. of the Americas","Thompson St., Canal St., Ave. of the Americas",0.134,Recreational Field/Courts,Neighborhood Plgd,False,10013,102,1,DPR,False,Grand Canal Court,40.72230385909519,-74.00503913045479
B516,Powell Street Livonia Garden,Powell Street Livonia Garden,Brooklyn,Livonia Ave. between Powell St. and Junius St.,Livonia Ave. between Powell St. and Junius St.,0.459,Garden,Greenthumb,False,11212,316,42,DPR,False,Powell Street Livonia Garden,40.66336177891678,-73.90184599226174
Q514,Woodside Houses Park,Woodside Houses Park,Queens,,Broadway and Newtown Rd. bet. 48 St. and 49 St.,0.145,Neighborhood Park,,False,11103,401,26,NYCHA,False,Woodside Houses Park,40.755770799579935,-73.91159715814449
M230,Poor Richard's Playground,Poor Richard's Playground,Manhattan,2095 2 AVENUE,E. 109 St. bet. 2 Ave. and 3 Ave.,1.58,Jointly Operated Playground,JOP,False,10029,111,8,DPR/DOE,False,Poor Richard's Playground,40.792664652383245,-73.9428429303655
Q066C,Triborough Bridge Playground C,Triborough Bridge Playground C,Queens,Hoyt Ave. bet. 23 St. and  24 St.,Hoyt Ave. bet. 23 St. and  24 St.,0.46,Recreational Field/Courts,Neighborhood Plgd,False,11102,401,22,DPR/TBTA,False,Triborough Bridge Playground C,40.773977583438906,-73.9222387698901
Q066D,Triborough Bridge Playground D,Triborough Bridge Playground D,Queens,"Hoyt Ave., bet. 24 St. and Crescent St.","Hoyt Ave., bet. 24 St. and Crescent St.",0.46,Recreational Field/Courts,Neighborhood Plgd,False,11102,401,22,DPR/TBTA,False,Triborough Bridge Playground D,40.77349304624603,-73.9215565419072
Q257,Lt. Clinton L .Whiting Square,Lt. Clinton L .Whiting Square,Queens,84 St. bet. 91 Ave. and 91 Ave.,84 St. bet. 91 Ave. and 91 Ave.,0.049,Triangle/Plaza,Sitting Area/Triangle/Mall,False,11421,409,32,DPR,False,Lt. Clinton L .Whiting Square,40.68724486592689,-73.85823015363543
X368,Park,Park,Bronx,Exterior St. bet. E. 144 St. and E. 146 St.,Exterior St. bet. E. 144 St. and E. 146 St.,2.25,Undeveloped,,True,10451,201,8,DPR,False,Park,40.81771475542331,-73.9315436669249
Q094D,Gemini Fields,Gemini Fields,Queens,"S. Conduit Ave.,  Linden Blvd.,  149 Ave., bet. 79 St.  and 85 St.","S. Conduit Ave.,  Linden Blvd.,  149 Ave., bet. 79 St.  and 85 St.",10.761,Recreational Field/Courts,Neighborhood Park,False,11414,410,32,DPR,False,Gemini Fields,40.670692816673025,-73.85278692677043
B149A,Elton Playground,Elton Playground,Brooklyn,Elton St. bet. New Lots Ave. and Hegeman Ave.,Elton St. bet. New Lots Ave. and Hegeman Ave.,0.622,Playground,Neighborhood Plgd,False,11208,305,42,DPR,False,Elton Playground,40.665932555531406,-73.88073888169129
Q133,Pat Williams Playground,Pat Williams Playground,Queens,"Hempstead Ave., 225 St. and 224 St. Cross Island Parkway Exit at 225 St.","Hempstead Ave., 225 St. and 224 St. Cross Island Parkway Exit at 225 St.",0.514,Playground,Neighborhood Plgd,False,11429,413,27,DPR,False,Pat Williams Playground,40.71303533949544,-73.7295180682879
Q300A1,Holy Cow Playground,Holy Cow Playground,Queens,Peck Ave. bet. 61 Rd. and 67 Ave.,Peck Ave. bet. 61 Rd. and 67 Ave.,2.7,Jointly Operated Playground,JOP,False,11365,408,23,DPR,False,Holy Cow Playground,40.741507587216034,-73.77699979210864
M410,Sage Garden,Sage Garden,Manhattan,E. 4 St. bet. Ave. B and Ave. C,E. 4 St. bet. Ave. B and Ave. C,0.054,Garden,,False,10009,103,2,DPR,False,Sage Garden,40.722824015226884,-73.98087099977404
B054,Lincoln Terrace / Arthur S. Somers Park,Lincoln Terrace / Arthur S. Somers Park,Brooklyn,1266 EASTERN PARKWAY,"Eastern Pkwy., E. New York Ave. bet. Rochester Ave. and Portal St.",17.14,Community Park,Large Park,False,"11213, 11233",308,41,DPR,False,Lincoln Terrace / Arthur S. Somers Park,40.666787480424695,-73.9269259930375
B166B,Homecrest Playground,Homecrest Playground,Brooklyn,"Belt Pkwy., Williams Court  bet. E. 12 St. and Homecrest Ave","Belt Pkwy., Williams Court  bet. E. 12 St. and Homecrest Ave",2.372,Playground,Neighborhood Plgd,False,11235,315,48,DPR,False,Homecrest Playground,40.58610019536322,-73.95729161461426
B155,Triangle,Triangle,Brooklyn,"New Lots Ave., Dumont Ave., Atkins Ave.","New Lots Ave., Dumont Ave., Atkins Ave.",0.017,Triangle/Plaza,Sitting Area/Triangle/Mall,False,11208,305,42,DPR,False,Triangle,40.66873022766933,-73.87742717355181
B459,Eastern Parkway Coalition,Eastern Parkway Coalition,Brooklyn,Eastern Pkwy. to Union St. between Franklin Ave. and Classon Ave.,Eastern Pkwy. to Union St. between Franklin Ave. and Classon Ave.,0.44,Garden,Greenthumb,False,11225,309,35,DPR,False,Eastern Parkway Coalition,40.670346098643286,-73.95924401328296
B113C,Columbus Park,Columbus Park,Brooklyn,225 JORALEMON STREET,"Adam St., Court St., Cadman Plaza West bet. Johnson St. and Fulton St.",4.14,Neighborhood Park,Sitting Area/Triangle/Mall,False,11201,302,33,DPR,False,Columbus Park,40.693651786412744,-73.98996862356348
B425,St Nicholas-olive St Garden,St. Nicholas - Olive St. Garden,Brooklyn,Olive St. between Powers St. and Devoe St.,Olive St. between Powers St. and Devoe St.,0.089,Garden,Greenthumb,False,11211,301,34,DPR,False,St Nicholas-olive St Garden,40.71330049017926,-73.93905163218888
B587,Park,Park,Brooklyn,Coney Island Boardwalk bet. W. 16 St. and W. 10 St.,Coney Island Boardwalk bet. W. 16 St. and W. 10 St.,3.575,Managed Sites,,True,11224,313,47,DPR,False,Park,40.57365779162361,-73.98076636077663
X364,Havemeyer Garden Association,Havemeyer Garden,Bronx,"Havemeyer Ave., Lacombe Ave., Zerega Ave.","Havemeyer Ave., Lacombe Ave., Zerega Ave.",0.136,Garden,,False,11207,209,18,DPR,False,Havemeyer Garden Association,40.81759014452893,-73.84419711382127
B093,Weeksville Playground,Weeksville Playground,Brooklyn,Howard Ave. bet. Atlantic Ave. and  Herkimer St.,Howard Ave. bet. Atlantic Ave. and  Herkimer St.,0.295,Playground,Neighborhood Plgd,False,11233,303,41,DPR,False,Weeksville Playground,40.67724805143101,-73.91947406536735
B560,Pirate's Cove Garden,Pirates Cove Garden,Brooklyn,Columbia St. bet. Rapelye St. and Woodhull St.,Columbia St. bet. Rapelye St. and Woodhull St.,0.032,Garden,,False,11231,306,39,DPR,False,Pirate's Cove Garden,40.68138681068459,-74.00418998658506
R136,Hybrid Oak Woods Park,Hybrid Oak Woods Park,Staten Island,Joline Ave. bet. Hylan Blvd. to Surf Ave.,Joline Ave. bet. Hylan Blvd. to Surf Ave.,9.763,Nature Area,Undeveloped,False,10307,503,51,DPR,False,Hybrid Oak Woods Park,40.50324428335884,-74.23415636606413
B223JA,Park,Park,Brooklyn,Jay St. bet. York St. and Prospect St.,Jay St. bet. York St. and Prospect St.,0.09,Triangle/Plaza,Type 1,False,11201,302,33,DPR,False,Park,40.70117007160387,-73.98689705122699
X039,Pelham Bay Park,Pelham Bay Park,Bronx,"Bruckner Blvd, Eastchester, Hutchinson","Bruckner Blvd, Eastchester, Hutchinson",,Flagship Park,Flagship Park,True,"10461, 10464, 10464, 10465, 10469, 10475, 10803","210,212",13,DPR,False,Pelham Bay Park,40.86811254909449,-73.80418076477885
M300,Sherman Creek,Sherman Creek,Manhattan,3703 HARLEM RIVER DRIVE,10 Ave. bet. Academy St. and the Harlem River,15.383,Neighborhood Park,Neighborhood Park,True,10040,112,10,DPR,False,Sherman Creek,40.85823311718062,-73.92138624137789
R151,Isle Of Meadows,Isle Of Meadows,Staten Island,Arthur Kills Near Fresh Kills Landfill,Arthur Kills Near Fresh Kills Landfill,87.516,Nature Area,Isle,True,10314,503,51,DPR,False,Isle Of Meadows,40.57626671964355,-74.20338145390788
R143,Staten Island Industrial Park,Staten Island Industrial Park,Staten Island,"SI Expwy., W. Shore Expwy., Graham Ave., South Ave.","SI Expwy., W. Shore Expwy., Graham Ave., South Ave.",210.928,Nature Area,Large Park,False,10314,502,50,DPR,False,Staten Island Industrial Park,40.612584798299274,-74.17401169161708
B010,Brooklyn Botanic Garden,Brooklyn Botanic Garden,Brooklyn,1000 WASHINGTON AV,"Washington Ave., Flatbush Ave. bet. Eastern Pkwy. and Empire Blvd.",47.57,Buildings/Institutions,Garden,False,11238,"309,308",35,DPR,False,Brooklyn Botanic Garden,40.66771920249585,-73.96386999876907
Q045,Andrews Grove,Andrews Grove,Queens,5-32 49 AVENUE,49 Ave. bet. 5 St. and Vernon Blvd.,0.518,Playground,Neighborhood Plgd,False,11101,402,26,DPR/HPD,False,Andrews Grove,40.74338292426727,-73.9548181180327
X118,Soundview Park,Soundview Park,Bronx,"Bronx River, Bronx River Ave. bet. Lafayette Ave., Surf Dr.","Bronx River, Bronx River Ave. bet. Lafayette Ave., Surf Dr.",269.415,Flagship Park,Large Park,True,10473,209,18,DPR,False,Soundview Park,40.811570436370786,-73.86621580224154
X195B,Park,Park,Bronx,S/B Bruckner Exwy. West of Morrison Ave.,S/B Bruckner Exwy. West of Morrison Ave.,0.102,Strip,Sitting Area/Triangle/Mall,False,10473,209,18,DPR,False,Park,40.82378486665763,-73.87392095391952
R140,King Fisher Park,King Fisher Park,Staten Island,"Miles Ave., Corbin Ave., Barlow Ave., Fairfield St.","Miles Ave., Corbin Ave., Barlow Ave., Fairfield St.",23.01,Nature Area,Large Park,False,10308,503,51,DPR,False,King Fisher Park,40.562373480204876,-74.1509274807968
Q164,Rockaway Beach,Rockaway Beach,Queens,Atlantic Ocean bet. B. 149 St. and B. 126 St.,Atlantic Ocean bet. B. 149 St. and B. 126 St.,166.71,Waterfront Facility,Large Park,True,11694,414,32,DPR,False,Rockaway Beach,40.569864491017356,-73.85221019415472
R145,Seaside Wildlife Nature Park,Seaside Wildlife Nature Park,Staten Island,"Nelson Ave., Tennyson Dr. and Bulkhead Line","Nelson Ave., Tennyson Dr. and Bulkhead Line",20.907,Neighborhood Park,Neighborhood Park,True,10308,503,51,DPR,False,Seaside Wildlife Nature Park,40.54013311869987,-74.14177058937273
M004,Allen Street Malls,Allen Street Malls,Manhattan,"E Houston St, E Broadway","E Houston St, E Broadway",1.698,Mall,Sitting Area/Triangle/Mall,False,10002,103,1,DPR,False,Allen Street Malls,40.71845197105477,-73.99076312082795
Q502,Rory Staunton Field,Rory Staunton Field,Queens,33-16 79 STREET,"78 St., 79 St. bet. Northern Blvd. and 34 Ave.",0.574,Recreational Field/Courts,Neighborhood Park,False,11372,403,25,DPR/DCAS,False,Rory Staunton Field,40.75400671877796,-73.8884020824337
B287,Andries Playground,Andries Playground,Brooklyn,Nostrand Ave. between Ave. L and Ave. K,Nostrand Ave. between Ave. L and Ave. K,0.964,Jointly Operated Playground,JOP,False,11210,314,45,DPR/DOE,False,Andries Playground,40.622833261053195,-73.94645526112438
Q417,Park,Park,Queens,"Belt Pkwy., Cross Bay Blvd. Ramp bet. 155 Ave. and 156 Ave.","Belt Pkwy., Cross Bay Blvd. Ramp bet. 155 Ave. and 156 Ave.",0.082,Strip,EXWY,False,11414,410,32,DPR,False,Park,40.66539671857011,-73.84022237194105
Q357J,Nassau Mall South,Nassau Mall South,Queens,"Horace Harding Exwy. Sr. Rd. S., 254 St., 57 Ave.","Horace Harding Exwy. Sr. Rd. S., 254 St., 57 Ave.",0.834,Triangle/Plaza,Sitting Area/Triangle/Mall,False,11362,411,23,DPR/SDOT,False,Nassau Mall South,40.76314611790443,-73.72609817192095
X343,Davidson Ave. Community Gardeners Group,Davidson Ave. Community Gardeners Group,Bronx,2502 DAVIDSON AVENUE,Davidson Ave. at W. 190 St.,0.115,Garden,Greenthumb,False,10468,207,14,DPR,False,Davidson Ave. Community Gardeners Group,40.86420999212401,-73.90084886333561
R024,Tompkinsville Park,Tompkinsville Park,Staten Island,"Bay St., Victory Blvd.","Bay St., Victory Blvd.",0.424,Neighborhood Park,Sitting Area/Triangle/Mall,False,10301,501,49,DPR,False,Tompkinsville Park,40.63743820066472,-74.07639193247338
X148G,Park,Park,Bronx,N/B Cross Bronx Exwy bet. Belmont Av and Arthur Av,N/B Cross Bronx Exwy bet. Belmont Av and Arthur Av,0.038,Strip,EXWY,False,10457,206,15,DPR,False,Park,40.844007966731866,-73.8939991198079
Q498,Sunset Cove Park,Sunset Cove Park,Queens,W. 19 Rd. bet Jamaica Bay and Cross Bay Blvd.,W. 19 Rd. bet Jamaica Bay and Cross Bay Blvd.,9.375,Nature Area,,True,11693,414,32,DPR,False,Sunset Cove Park,40.59853005938056,-73.8229950853241
Q480,Remsen Family Cemetery,Remsen Family Cemetery,Queens,"Trotting Course La., Alderton St.","Trotting Course La., Alderton St.",0.247,Cemetery,Sitting Area/Triangle/Mall,False,11374,406,30,DPR,False,Remsen Family Cemetery,40.7123274696339,-73.85847930427319
X142,Riverdale Park,Riverdale Park,Bronx,"Hudson River, W 254 St, Palisade Av, W 2","Hudson River, W 254 St, Palisade Av, W 2",144.29,Nature Area,Large Park,True,"10463, 10471",208,11,DPR,False,Riverdale Park,40.892624855900905,-73.91938827347754
Q089B,Harvey Park,Harvey Park,Queens,"144 St., Whitestone Exwy. bet. 15 Ave. and 20 Ave.","144 St., Whitestone Exwy. bet. 15 Ave. and 20 Ave.",9.154,Community Park,Large Park,False,11357,407,19,DPR,False,Harvey Park,40.783455864003976,-73.82343360185558
Q010A,Little Bay Park,Little Bay Park,Queens,Cross Island Pkwy. bet. Utopia Pkwy. and Totten Ave.,Cross Island Pkwy. bet. Utopia Pkwy. and Totten Ave.,55.22,Community Park,Large Park,True,"11359, 11360",407,19,DPR,False,Little Bay Park,40.79009023358235,-73.78792189394366
M371,Hope Garden,Hope Garden,Manhattan,193 EAST 2 STREET,E. 2 St. bet. Ave. A and Ave. B,0.046,Garden,Greenthumb,False,10009,103,2,DPR,False,Hope Garden,40.722077609368846,-73.98418501087973
Q446,Sorrentino Recreation Center,Sorrentino Recreation Center,Queens,18-40 CORNAGA AVENUE,Cornaga Ave. bet. Beach 19 St. and Morse Ct.,0.231,Buildings/Institutions,,False,11691,414,31,DPR,False,Sorrentino Recreation Center,40.602429361536906,-73.75135636206922
Q367,Hammel Playground,Hammel Playground,Queens,83-000 Rockaway Beach Blvd,Rockaway Beach Blvd. bet. Beach 84 St. and Beach 81 St.,1.03,Playground,Neighborhood Plgd,False,11693,414,31,DPR/NYCHA,False,Hammel Playground,40.58820285841939,-73.80937414924448
Q357E,Park,Park,Queens,Horace Harding Exwy. Sr. Rd. N. bet. 244 St. and Overbrook St.,Horace Harding Exwy. Sr. Rd. N. bet. 244 St. and Overbrook St.,0.02,Strip,STRIP,False,11362,411,19,DPR,False,Park,40.75879589899662,-73.73708919981978
B127,Martinez Playground,Martinez Playground,Brooklyn,195 GRAHAM AVENUE,Scholes St. bet. Manhattan Ave. and Graham Ave.,1.373,Recreational Field/Courts,Neighborhood Plgd,False,11206,301,34,DPR/NYCHA,False,Martinez Playground,40.709072179925826,-73.94460267225706
Q393C,LaGuardia Landing Lights,LaGuardia Landing Lights,Queens,79-01 25 AVENUE,"79 St., 80 St. bet. 24 and 25 Ave.",1.754,Recreational Field/Courts,Sitting Area/Triangle/Mall,False,11370,403,22,DPR,False,LaGuardia Landing Lights,40.763437784355354,-73.8891893910381
Q393A,LaGuardia Landing Lights,LaGuardia Landing Lights,Queens,78-02 25 AVENUE,25 Ave. bet. 78 St. and 79 St.,1.473,Recreational Field/Courts,Sitting Area/Triangle/Mall,False,11370,403,25,DPR,False,LaGuardia Landing Lights,40.76214613295974,-73.88992761721856
M060C,Park Avenue Malls,Park Avenue Malls,Manhattan,E. 59 St. To E. 97 St. and Park Ave.,E. 59 St. To E. 97 St. and Park Ave.,4.623,Mall,Sitting Area/Triangle/Mall,False,"10021, 10022, 10028, 10029, 10065, 10075, 10128","108,111",4,DPR,False,Park Avenue Malls,40.7753322831959,-73.96073939482984
M165,Baruch Playground,Baruch Playground,Manhattan,288 DELANCEY STREET,Corner of Baruch Pl. and Mangin St.,2.32,Recreational Field/Courts,Neighborhood Plgd,False,10002,103,2,DPR/NYCHA,False,Baruch Playground,40.717305588434044,-73.97682303434338
B068,Parade Ground,Parade Ground,Brooklyn,305 PARKSIDE AVENUE,"Parkside Ave., Caton Ave., bet. Parade Pl. and Coney Island Ave.",39.5,Recreational Field/Courts,Large Park,False,11226,314,40,DPR,False,Parade Ground,40.65077378051787,-73.96851807636445
B223OB,Marcy Park South,Marcy Park South,Brooklyn,243 DIVISION AVENUE,Marcy Ave. bet. S. 9 St. and Division St.,0.357,Recreational Field/Courts,Neighborhood Plgd,False,11211,301,34,DPR,False,Marcy Park South,40.70750270957978,-73.9580417707197
X263,Quarry Ballfields,Quarry Ballfields,Bronx,565 EAST 181 STREET,"E. 181 St., Oak Tree Pl. bet. Quarry Rd. and Hughes Ave.",4.417,Recreational Field/Courts,Neighborhood Park,False,10457,206,15,DPR,False,Quarry Ballfields,40.850865162869184,-73.89085944915979
M271A,Harlem RBI,Harlem RBI,Manhattan,313 EAST 100 STREET,E. 100 St. to E. 101 St. bet. 2 Ave. and 1 Ave.,0.9,Recreational Field/Courts,Undeveloped,False,10029,111,8,DPR,False,Harlem RBI,40.78666077956202,-73.94386130410625
B223R,Jaime Campiz Playground,Jaime Campiz Playground,Brooklyn,15 MARCY AVENUE,"Hope St., Marcy Ave., Metropolitan Ave.",0.752,Playground,Neighborhood Plgd,False,11211,301,34,DPR,False,Jaime Campiz Playground,40.71354253746116,-73.95437736747029
Q341D,Spargo Park,Spargo  Park,Queens,BQE bet. 43 Ave. and Queens Blvd.,BQE bet. 43 Ave. and Queens Blvd.,0.375,Strip,Undeveloped,False,11377,402,26,DPR,False,Spargo Park,40.74137249347154,-73.89727068061902
R137,Bayview Terrace Park,Bayview Terrace Park,Staten Island,Bayview Ter. from Barclay Ave. to Harold Ave.,Bayview Ter. from Barclay Ave. to Harold Ave.,16.944,Nature Area,Large Park,True,10312,503,51,DPR,False,Bayview Terrace Park,40.52569741162931,-74.16367121706297
X085,Slattery Playground,Slattery Playground,Bronx,2300 Ryer Avenue,E. 183 St. bet. Valentine Ave. and Ryer,0.911,Playground,Neighborhood Plgd,False,10458,205,15,DPR,False,Slattery Playground,40.85730590160686,-73.89848043460917
Q344,Emerald Playground,Emerald Playground,Queens,70-10 164 STREET,"Jewel Ave., 71 Ave. bet. 163 St. and 164 St.",1.265,Jointly Operated Playground,JOP,False,11365,408,24,DPR/DOE,False,Emerald Playground,40.7310146986959,-73.80596667089915
Q222,Glenwood Landing,Glenwood Landing,Queens,"Glenwood St., 39 Rd.","Glenwood St., 39 Rd.",0.3,Triangle/Plaza,Sitting Area/Triangle/Mall,False,11363,411,19,DPR,False,Glenwood Landing,40.77509453904095,-73.73997341629065
Q294,Utopia Playground,Utopia Playground,Queens,"73 Ave., Jewel Ave. bet. Utopia Pkwy. and 179 St.","73 Ave., Jewel Ave. bet. Utopia Pkwy. and 179 St.",2.98,Neighborhood Park,Neighborhood Plgd,False,11365,408,24,DPR,False,Utopia Playground,40.73072573075091,-73.79277632088082
B606,Fowler Square,Fowler Square,Brooklyn,S Elliot Pl AND Lafayette Ave,"Fulton St., S Elliot Pl., and Lafayette Ave.",0.004,Triangle/Plaza,,False,11217,302,35,DPR,False,Fowler Square,40.686956467415406,-73.97570453279926
Q357D,Park,Park,Queens,Horace Harding Exwy. Sr. Rd. N. bet. Douglaton Pkwy. and 244 St.,Horace Harding Exwy. Sr. Rd. N. bet. Douglaton Pkwy. and 244 St.,0.023,Strip,STRIP,False,11362,411,19,DPR,False,Park,40.75781399145312,-73.73868208200273
X092,Van Cortlandt Park,Van Cortlandt Park,Bronx,3545 JEROME AVENUE,"Broadway, Jerome Ave,City Line,Van Cortlandt Pk S",,Flagship Park,Flagship Park,False,"10467, 10470, 10471, 10705, 10705","207,208,212",11,DPR,False,Van Cortlandt Park,40.897109348169224,-73.88666494088386
M056,Morningside Park,Morningside Park,Manhattan,"W 110 St To W 123 St, Manhattan Av To Morningside Av","W 110 St To W 123 St, Manhattan Av To Morningside Av",29.888,Community Park,Large Park,False,10026,109,7,DPR,False,Morningside Park,40.80576033790631,-73.95837988888691
Q009,Hermon A. MacNeil Park,Hermon A. MacNeil Park,Queens,,Poppenhusen Ave. bet. 115 St. and College Pl.,28.87,Neighborhood Park,Large Park,True,11356,407,19,DPR,False,Hermon A. MacNeil Park,40.79305959190879,-73.8517066888784
Q136,Playground 115,Playground 115,Queens,,115 St. bet. 14 Ave. and 14 Rd.,0.287,Playground,Neighborhood Plgd,False,11356,407,19,DPR/DOE,False,Playground 115,40.78522637697372,-73.85261092108904
Q103,Raymond O’Connor Park,Raymond O’Connor Park,Queens,,"32 Ave., 33 Ave. bet. Corporal Kennedy St. and 210 St.",5.4,Neighborhood Park,Neighborhood Plgd,False,11361,411,19,DPR,False,Raymond O’Connor Park,40.77171252644071,-73.77933493171489
Q042,Poppenhusen Park,Poppenhusen Park,Queens,,"College Pl., College Pt. Blvd., bet. 11 Ave. and 12 Ave.",0.05,Triangle/Plaza,Sitting Area/Triangle/Mall,False,11356,407,19,DPR,False,Poppenhusen Park,40.78786077934538,-73.84582117370104
B130,Greenwood Playground,Greenwood Playground,Brooklyn,83 EAST 5 STREET,"Ft Hamilton Pkwy., Prospect Ave., Greenwood Ave.",3.39,Neighborhood Park,Neighborhood Plgd,False,11218,307,39,DPR,False,Greenwood Playground,40.65037924760653,-73.97639602356881
Q505,Culinary Kids Garden,Culinary Kids Garden,Queens,30-15 SEAGIRT BOULEVARD,Seagirt Blvd. bet. Beach 31 St. and Beach 30 St.,1.492,Garden,,False,11691,414,31,DPR,False,Culinary Kids Garden,40.595586489539066,-73.7635917040319
R147,South Beach Wetlands,South Beach Wetlands,Staten Island,"Qunitard St., Pearsall St., Frank Capodanno Blvd.","Qunitard St., Pearsall St., Frank Capodanno Blvd.",5.188,Nature Area,Undeveloped,False,10305,502,50,DPR,False,South Beach Wetlands,40.587193232595546,-74.07259954668473
M007,Bowling Green,Bowling Green,Manhattan,Broadway and Whitehall St.,Broadway and Whitehall St.,1.016,Triangle/Plaza,Sitting Area/Triangle/Mall,False,10004,101,1,DPR,False,Bowling Green,40.704944833281594,-74.01365765939056
B018,Canarsie Park,Canarsie Park,Brooklyn,9006 SEAVIEW AVENUE,"Belt Pkwy, Seaview Ave Btw: Paerdegat Basin, E 93 S, E 102 St, Fresh Creek Basin",132.2,Community Park,Large Park,True,"11236, 11239",318,46,DPR,False,Canarsie Park,40.629977373108716,-73.89183324496078
X094,Bridge Park,Bridge Park,Bronx,Harlem River bet. W 175 St and Alexander Hamilton Br,Harlem River bet. W 175 St and Alexander Hamilton Br,7.156,Neighborhood Park,Large Park,True,"10452, 10453","204,205",16,DPR,False,Bridge Park,40.84631251919234,-73.92706440638526
B082,Shore Park and Parkway,Shore Park and Parkway,Brooklyn,7420 Shore Rd,"4 Ave., Shore Rd., Belt Pkwy., Verrazano Bridge",58.0,Community Park,Large Park,True,"11209, 11220",310,47,DPR/CDOT,False,Shore Park and Parkway,40.62577201908746,-74.0370413280712
Q035,Mall Thirty Four XXXIV,Mall Thirty Four XXXIV,Queens,"34 Ave. bet. 79 St. and 92 St., Junction Blvd. and 111 St.","34 Ave. bet. 79 St. and 92 St., Junction Blvd. and 111 St.",0.55,Mall,Sitting Area/Triangle/Mall,False,"11368, 11372",403,"21, 25",DPR,False,Mall Thirty Four XXXIV,40.75501419001064,-73.8728702780885
Q015,Forest Park,Forest Park,Queens,80-30 PARK LANE,"Myrtle Ave, Union Tpke, Park Lane S",506.86,Flagship Park,Flagship Park,False,"11375, 11385, 11415, 11421","305,405,406,409","29, 32",DPR,False,Forest Park,40.702052814786015,-73.85300370516033
B258,Brevoort Playground,Brevoort Playground,Brooklyn,291 PATCHEN AVENUE,Ralph Ave. bet. Chauncey St. and Sumpter St.,1.485,Playground,Neighborhood Plgd,False,11233,303,41,DPR/NYCHA,False,Brevoort Playground,40.68047022108279,-73.92276101536137
B260A,Howard Pool,Howard Pool,Brooklyn,1560 EAST NEW YORK AVENUE,E. New York Ave. between Mother Gaston Blvd. and St. Mark's Ave.,0.67,Community Park,,False,11212,316,41,DPR/NYCHA,False,Howard Pool,40.672757222405544,-73.90895206365364
Q135,Cross Island Parkway,Cross Island Parkway,Queens,Whitestone Exwy. at 13 Ave. to the Linden Blvd and the Belt Pkwy.,Whitestone Exwy. at 13 Ave. to the Linden Blvd and the Belt Pkwy.,326.895,Parkway,PKWY,True,"11003, 11357, 11359, 11360, 11361, 11362, 11364, 1","407,411,413","19, 23, 27",DPR,False,Cross Island Parkway,40.76062136896224,-73.75892076235864
B030,Eastern Parkway Extension,Eastern Parkway Extension,Brooklyn,Eastern Pkwy. bet. Ralph Ave. and Bushwick Ave.,Eastern Pkwy. bet. Ralph Ave. and Bushwick Ave.,2.064,Mall,Sitting Area/Triangle/Mall,False,"11207, 11233","316,304","37, 41",DPR/CDOT,False,Eastern Parkway Extension,40.67393617859963,-73.91270424977128
B600,Garden,Garden,Brooklyn,45 SOMERS STREET,Somers St. bet. Thomas S Boyland St. and Rockaway Ave.,0.151,Garden,,False,11233,316,41,DPR,False,Garden,40.67894231838908,-73.91162737156523
B394,Four Sparrow Marsh,Four Sparrow Marsh,Brooklyn,"Flatbush Ave., Belt Pkwy., Mill Basin","Flatbush Ave., Belt Pkwy., Mill Basin",64.665,Nature Area,Large Park,True,11234,318,46,DPR,False,Four Sparrow Marsh,40.60160804321201,-73.90536132800766
B210H,Harold Ickes Playground,Harold Ickes Playground,Brooklyn,100 HAMILTON AVENUE,Hamitlon Ave. ber. Van Brunt St. and Woodull St.,1.816,Playground,Neighborhood Plgd,False,11231,306,"38, 39",DPR,False,Harold Ickes Playground,40.682529868023416,-74.00594560844978
R013,LaTourette Park & Golf Course,LaTourette Park & Golf Course,Staten Island,1001 RICHMOND HILL ROAD,"Forest Hill & London Rds, Rockland Ave",760.79,Flagship Park,Flagship Park,False,"10306, 10314","502,503","50, 51",DPR,False,LaTourette Park & Golf Course,40.57760252135379,-74.14953125521942
Q096B,Southern Fields,Southern Fields,Queens,114-30 NORTH CONDUIT AVENUE,N Conduit Av-Belt Pkwy bet. 114 and 117 Sts,5.593,Recreational Field/Courts,Neighborhood Park,False,11420,410,28,DPR,False,Southern Fields,40.66569013147561,-73.82620932024187
Q523,Park,Park,Queens,592 - 598 BEACH 43 STREET,Beach 43 St. and Conch Dr.,0.2395329,Neighborhood Park,,True,11691,414,31,DPR,False,Park,40.601509480695476,-73.77515951161739
X239,Castle Hill Little League Field,Castle Hill Little League Field,Bronx,1188 ZEREGA AVENUE,Zerega Av bet. Commerce Av and Gleason Av,1.707,Recreational Field/Courts,Neighborhood Park,False,10462,209,18,DPR,False,Castle Hill Little League Field,40.832418264302945,-73.84402500012209
B223DH,Brooklyn Heights Promenade,Brooklyn Heights Promenade,Brooklyn,68 COLUMBIA HEIGHTS,BQE bet. Clark St. and Pineapple St.,0.093,Triangle/Plaza,Sitting Area/Triangle/Mall,False,11201,302,33,DPR,False,Brooklyn Heights Promenade,40.69881482319183,-73.99660935229909
B596,Flatbush African Burial Ground,Flatbush African Burial Ground,Brooklyn,2286 CHURCH AVENUE,Bedford Ave. bet. Erasmus St. and Church St.,0.66,Undeveloped,,False,11226,314,40,DPR,False,Flatbush African Burial Ground,40.65017154087241,-73.95625802385666
M265,Vincent F. Albano Jr. Playground,Vincent F. Albano Jr. Playground,Manhattan,2 Ave. bet. E. 29 St. and E. 30 St.,2 Ave. bet. E. 29 St. and E. 30 St.,0.346,Playground,Neighborhood Plgd,False,10016,106,2,DPR/TBTA,False,Vincent F. Albano Jr. Playground,40.74200698538261,-73.97849255653817
X014,Horseshoe Playground,Horseshoe Playground,Bronx,885 EAST 165 STREET,E. 165 St. and Rogers Pl.,0.432,Playground,Neighborhood Plgd,False,10459,202,17,DPR,False,Horseshoe Playground,40.82412121921529,-73.89769156979145
X185,Dunbar Playground,Dunbar Playground,Bronx,902 CAULDWELL AVENUE,"E 161 St, Trinity Av, E 163 St, Cauldwel",1.44,Jointly Operated Playground,JOP,False,10456,203,17,DPR/NYCHA,False,Dunbar Playground,40.82301077752454,-73.90644375138507
Q357F,Park,Park,Queens,Horace Harding Exwy. Sr. Rd. N. bet. Overbrook St. and 248 St.,Horace Harding Exwy. Sr. Rd. N. bet. Overbrook St. and 248 St.,0.02,Strip,STRIP,False,11362,411,19,DPR,False,Park,40.759671770657945,-73.7355799288495
Q387E,Baybridge Green,Baybridge Green,Queens,Clearview Exwy. bet. Lori Dr. and 15 Dr.,Clearview Exwy. bet. Lori Dr. and 15 Dr.,0.316,Strip,STRIP,False,11360,407,19,DPR,False,Baybridge Green,40.78505146480388,-73.78620459383437
M415,Lorraine Hansberry Plaza,Lorraine Hansberry Plaza,Manhattan,705 10 Avenue,10 Ave. bet. W. 48 St. and W. 49 St.,0.623,Undeveloped,,False,10036,104,3,DEP,False,Lorraine Hansberry Plaza,40.76389437008053,-73.99283046630065
M413,Rapkin-Gayle Plaza,Rapkin-Gayle Plaza,Manhattan,142 Grand Street,Grand St. bet. Crosby St. and Lafayette St.,0.287,Neighborhood Park,,False,10012,102,1,DEP,False,Rapkin-Gayle Plaza,40.720392507500144,-73.99914152854295
M070,Queensboro Oval,Queensboro Oval,Manhattan,405 EAST 59 STREET,"West of York Ave., E 59 St. To E 60 St.",1.239,Recreational Field/Courts,Neighborhood Park,False,10022,108,5,DPR/CDOT,False,Queensboro Oval,40.75922449162595,-73.96007544062716
R017A,Greenbelt Native Plant Center,Greenbelt Native Plant Center,Staten Island,3808 VICTORY BOULEVARD,Victory Blvd. bet. Ridgeway Ave. and Travis Ave.,12.247,Buildings/Institutions,Flagship Park,False,10314,502,50,DPR,False,Greenbelt Native Plant Center,40.596076102227464,-74.18155504935318
B336A,Lot,Lot,Brooklyn,Surf Ave. between W. 22 St. and W. 21 St.,Surf Ave. between W. 22 St. and W. 21 St.,1.702,Lot,Parking Lot,False,11224,313,47,DPR,False,Lot,40.5738697119206,-73.98810464790044
B166D,McGuire Fields,McGuire Fields,Brooklyn,2333 BERGEN AVENUE,"Ave Y., Bergen Ave. bet. Ave. V and Belt Pkwy.",77.181,Recreational Field/Courts,Large Park,True,11234,318,46,DPR,False,McGuire Fields,40.6137085489469,-73.89939740607018
B223DJ,Brooklyn Heights Promenade,Brooklyn Heights Promenade,Brooklyn,68 COLUMBIA HEIGHTS,BQE bet. Pineapple St. and Orange St.,0.09,Triangle/Plaza,Sitting Area/Triangle/Mall,False,11201,302,33,DPR,False,Brooklyn Heights Promenade,40.699460525736974,-73.99630299337275
M062,Grand Army Plaza,Grand Army Plaza,Manhattan,1 GRAND ARMY PLAZA,"5 Av, W 58 St To W 59 St",0.625,Triangle/Plaza,Sitting Area/Triangle/Mall,False,10019,105,4,DPR,False,Grand Army Plaza,40.76413499361369,-73.97354731279204
Q460,Broad Channel Park,Broad Channel Park,Queens,16-26 CROSS BAY BOULEVARD,"Cross Bay Blvd., Channel Rd. bet. E. 16 Rd. and E. 18 Rd.",1.55,Neighborhood Park,Neighborhood Plgd,False,11693,414,32,DPR,False,Broad Channel Park,40.60102020082357,-73.81976856395283
Q135A,McKee Triangle,McKee Triangle,Queens,,"149 St., 15 Ave., Cross Island Pkwy.",0.059,Triangle/Plaza,Sitting Area/Triangle/Mall,False,11357,407,19,DPR,False,McKee Triangle,40.78725561323574,-73.81591973129737
Q453,Queens Farm Park,Queens Farm Park,Queens,73-50 LITTLE NECK PARKWAY,Little Neck Pkwy. bet. 73 Rd. and 74 Ave.,47.08,Managed Sites,Large Park,False,11426,413,23,DPR,False,Queens Farm Park,40.74778053625748,-73.7224938576502
B578,Saratoga Blake Garden,Saratoga Blake Garden,Brooklyn,83 BLAKE AVENUE,Blake Ave. bet. Legion St. and Saratoga Ave.,0.103,Garden,,False,11212,316,41,DPR,False,Saratoga Blake Garden,40.66476542665311,-73.91672708555767
X352,Family Group Garden,Family Group Garden,Bronx,420 EAST 158 STREET,E. 158 St. bet. Melrose Ave. and Elton Ave.,0.101,Garden,,False,10451,201,17,DPR,False,Family Group Garden,40.821843739772994,-73.91408133625305
Q327,Castlewood Playground,Castlewood Playground,Queens,252-72 LITTLE NECK PARKWAY,Little Neck Pkwy. bet. 72 Ave. and 73 Ave.,2.059,Jointly Operated Playground,JOP,False,11426,413,23,DPR/DOE,False,Castlewood Playground,40.74950435674067,-73.72176742003134
M273,Wagner Houses Pool,Wagner Houses Pool,Manhattan,2435 1 AVENUE,E. 124 St. bet. 1 Ave. and 2 Ave.,1.64,Community Park,Building,False,10035,111,8,DPR/NYCHA,False,Wagner Houses Pool,40.80167903379782,-73.93261246492202
X118A,Harding Park Beautification Project,Harding Park Beautification Project,Bronx,Bronx River Ave. bet. C St. and Cornell Ave.,Bronx River Ave. bet. C St. and Cornell Ave.,1.16,Garden,Greenthumb,True,10473,209,18,DPR,False,Harding Park Beautification Project,40.80768004617995,-73.85822257840924
B581,Warwick Street Greenery Glow Garden,Warwick Street Greenery Glow Garden,Brooklyn,601 WARWICK STREET,Warwick St. bet. Blake Ave. and Dumont Ave.,0.041,Garden,,False,11207,305,42,DPR,False,Warwick Street Greenery Glow Garden,40.66867114215264,-73.88437986991126
B223QC,Marcy Green North,Marcy Green North,Brooklyn,111 MARCY AVENUE,"Marcy Ave., S. 3 St. and S. 4 St.",0.137,Triangle/Plaza,Sitting Area/Triangle/Mall,False,11211,301,34,DPR,False,Marcy Green North,40.709979176987,-73.956632992837
M325A,La Casita Garden,La Casita Garden,Manhattan,339 EAST 8 STREET,E. 8 St. bet. Ave B and Ave. C,0.08,Garden,,False,10009,103,2,DPR,False,La Casita Garden,40.72504128961543,-73.97871226122489
Q517,Brinckerhoff Cemetery,Brinkerhoff Cemetery,Queens,182 Street bet. 69 Ave. and 73 Ave.,182 Street bet. 69 Ave. and 73 Ave.,0.209,Cemetery,,False,11365,408,24,DPR,False,Brinckerhoff Cemetery,40.732026041483266,-73.78824665204486
B223QB,Marcy Green Center,Marcy Green Center,Brooklyn,131 MARCY AVENUE,"Marcy Ave., S. 4 St. and S. 5 St.",0.195,Triangle/Plaza,Sitting Area/Triangle/Mall,False,11211,301,34,DPR,False,Marcy Green Center,40.70932182657591,-73.95702818227134
B085,Metropolitan Recreation Center,Metropolitan Recreation Center,Brooklyn,257 BEDFORD AVENUE,Bedford Ave. bet. Metropolitan Ave. and N. 1 St.,0.181,Buildings/Institutions,,False,11211,301,34,DPR,False,Metropolitan Recreation Center,40.71501205063812,-73.96031458773182
M141,Percy E. Sutton Playground,Percy E. Sutton Playground,Manhattan,"Harlem River Dr., W. 151 St. To W. 154 St.","Harlem River Dr., W. 151 St. To W. 154 St.",1.635,Neighborhood Park,Neighborhood Plgd,False,10039,110,9,DPR,False,Percy E. Sutton Playground,40.82599891935063,-73.93487871521748
Q356,Alley Park,Alley Park,Queens,231-02 67 AVENUE,67 Ave. bet. 230 St. and 233 St.,2.446,Jointly Operated Playground,JOP,False,11364,411,23,DPR/DOE,False,Alley Park,40.747390282835276,-73.74491305273632
Q133B,Hempstead Bench Spread,Hempstead Bench Spread,Queens,104 Ave. bet. 225 St. and 227 St.,104 Ave. bet. 225 St. and 227 St.,0.274,Triangle/Plaza,Sitting Area/Triangle/Mall,False,11429,413,27,DPR,False,Hempstead Bench Spread,40.71048190076434,-73.7296129617782
B223DK,Brooklyn Heights Promenade,Brooklyn Heights Promenade,Brooklyn,BQE over-hang bet. Remsen St. and Orange St.,BQE over-hang bet. Remsen St. and Orange St.,1.093,Triangle/Plaza,Large Park,False,11201,302,33,DPR,False,Brooklyn Heights Promenade,40.6974514775363,-73.99735390421138
X304,Tiffany Street Pier,Tiffany Street Pier,Bronx,Tiffany St. at Viele Ave.,Tiffany St. at Viele Ave.,4.231,Waterfront Facility,Neighborhood Park,True,10455,202,17,DPR,False,Tiffany Street Pier,40.805439239958865,-73.89067958904803
R171,Arlington Marsh Park,Arlington Marsh Park,Staten Island,Richmond Terrace bet. Catherine Pl and Holland Ave.,Richmond Terrace bet. Catherine Pl and Holland Ave.,70.6,Undeveloped,,True,10303,501,49,DPR,False,Arlington Marsh Park,40.64322948410534,-74.17499787159336
B575,Halsey Garden,Halsey Garden,Brooklyn,462 HALSEY STREET,Halsey St. bet. Marcus Garvey Blvd. and Lewis Ave.,0.121,Garden,,False,11233,303,36,DPR,False,Halsey Garden,40.683204741343836,-73.93566188477266
B567,Her-King Alagantic Block Association Garden,Her-King Alagantic Garden,Brooklyn,Herkimer St. bet. Kingston Ave. and Albany Ave.,Herkimer St. bet. Kingston Ave. and Albany Ave.,0.045,Garden,,False,11213,303,36,DPR,False,Her-King Alagantic Block Association Garden,40.67932034429958,-73.93965657133079
B566,Brownsville Community Farm,Brownsville Community Farm,Brooklyn,Herzl St. bet. Dumont Ave. and Blake Ave.,Herzl St. bet. Dumont Ave. and Blake Ave.,0.117,Garden,,False,11212,316,41,DPR,False,Brownsville Community Farm,40.66418986503802,-73.91390645392266
M132,Little Flower Playground,Little Flower Playground,Manhattan,300 CHERRY STREET,Madison St. bet. Clinton St. and Rutgers St.,1.294,Playground,Neighborhood Plgd,False,10002,103,1,DPR/NYCHA,False,Little Flower Playground,40.71243715386306,-73.98823685502276
M407,Harlem Valley Garden,Harlem Valley Garden,Manhattan,197 WEST 134 STREET,W. 134th St. bet. Adam C Powell Blvd. and Lenox Ave.,0.057,Garden,,False,10030,110,9,DPR,False,Harlem Valley Garden,40.81461254451162,-73.94355222139615
M408,Siempre Verde Garden,Siempre Verde Garden,Manhattan,137 ATTORNEY STREET,"Attorney St., Stanton St.",0.061,Garden,,False,10002,103,1,DPR,False,Siempre Verde Garden,40.71983545465303,-73.9840115836981
M405,Electric Ladybug Garden,W. 111th St. Harlem Garden,Manhattan,237 WEST 111 STREET,W 111 St. bet. Fredrick Douglass Blvd. and Adam C. Powell Blvd.,0.115,Garden,,False,10026,110,9,DPR,False,Electric Ladybug Garden,40.80088758860408,-73.95629306167136
M155,Courtney Callender Playground,Courtney Callender Playground,Manhattan,2122 5 AVENUE,"5 Ave., W. 130 St. To .W 131 St.",0.653,Playground,Neighborhood Plgd,False,10037,110,9,DPR,False,Courtney Callender Playground,40.81004410507873,-73.94011420818953
M154,Mathews-Palmer Playground,Mathews-Palmer Playground,Manhattan,437 WEST 45 STREET,W. 45 St. bet. 9 Ave. and 10 Ave.,0.475,Playground,Neighborhood Plgd,False,10036,104,3,DPR,False,Mathews-Palmer Playground,40.76139591514681,-73.99273557490828
M148,White Playground,White Playground,Manhattan,167 EAST 105 STREET,E. 105 St. To E. 106 St. bet. Lexington Ave. and 3 Ave.,0.684,Playground,Neighborhood Plgd,False,10029,111,8,DPR,False,White Playground,40.79164156844219,-73.9459060422626
M350,Peachtree Garden,Peachtree Garden,Manhattan,238 EAST 2 STREET,E. 2 St. bet. Ave. B and Ave. C,0.12,Garden,Greenthumb,False,10009,103,2,DPR,False,Peachtree Garden,40.721659307474944,-73.98197847854655
B210L,64th Street Community Garden,Park,Brooklyn,N/B Gowanus Exwy. bet. 63 St. and 64 St.,N/B Gowanus Exwy. bet. 63 St. and 64 St.,0.009,Strip,EXWY,False,11220,307,38,DPR,False,64th Street Community Garden,40.63932769929478,-74.02122553908812
